id,name,permitID,country_code,NACE number,NACE name,Latitude,Longitude,Emission rank 2023,EU,EIGL sector,Industry,Emissions 2023 (Mt),Emissions 2022 (Mt),x,y
IT_575,Sarlux Srl,IT-A-841,IT,1920.0,Refineries & petrochemical industry,39.0899,9.0111,17,Y,Refining,Y,5.603437,6.104895,1003111.0634872738,4734557.169401064
IT_515,Stabilimento di Taranto,IT-A-762,IT,2410.0,Iron & steel,40.5108,17.2152,24,Y,Iron & steel,Y,4.351958,4.703125,1916387.297904367,4940450.367081318
IT_511,ADI Energia S.r.l.,IT-A-758,IT,3511.0,Production of electricity,40.5108,17.2152,40,Y,Production of electricity,N,3.515575,3.745729,1916387.297904367,4940450.367081318
IT_439,CENTRALE TERMOELETTRICA DI TORREVALDALIGA NORD,IT-A-667,IT,3511.0,Production of electricity,42.1275,11.7586,44,Y,Production of electricity,N,3.339651,5.379086,1308961.3644417932,5180097.500981578
IT_521,CENTRALE TERMOELETTRICA DI  BRINDISI SUD,IT-A-769,IT,3511.0,Production of electricity,40.5638,18.0321,47,Y,Production of electricity,N,3.253144,7.353276,2007324.189933396,4948213.611077839
IT_517,EniPower S.p.A. - Stabilimento di Brindisi,IT-A-764,IT,3511.0,Production of electricity,40.6411,17.9919,84,Y,Production of electricity,N,2.297327,2.428705,2002849.146403504,4959547.258960319
IT_649,Centrale termoelettrica di fiumesanto,IT-A-980,IT,3511.0,Production of electricity,40.760485,8.47218364,86,Y,Production of electricity,N,2.276654,2.943816,943119.1688232304,4977077.188486889
IT_179,EniPower S.p.A.- Stabilimento di Ferrera Erbognone,IT-A-222,IT,3511.0,Production of electricity,45.1002,8.8666,92,Y,Production of electricity,N,2.206441,2.551047,987025.3970676464,5637309.7429499505
IT_37,Raffneria di Augusta,IT-A-42,IT,1920.0,Refineries & petrochemical industry,37.2216,15.1905,101,Y,Refining,Y,2.034384,2.02935,1690998.724895227,4470040.145947965
IT_197,EniPower Mantova,IT-A-241,IT,3511.0,Production of electricity,45.149,10.8354,114,Y,Production of electricity,N,1.844634,1.71902,1206191.210541442,5645009.0666520335
IT_355,EniPower S.p.A. - Stabilimento di Ravenna,IT-A-547,IT,3511.0,Production of electricity,44.4455,12.2329,117,Y,Production of electricity,N,1.802993,1.793923,1361760.1989250395,5534645.170075493
IT_541,Raffineria di Milazzo,IT-A-802,IT,1920.0,Refineries & petrochemical industry,38.2027,15.2723,119,Y,Refining,Y,1.754161,1.724827,1700104.6592421154,4608100.231066425
IT_561,IMPIANTO IGCC,IT-A-825,IT,3511.0,Production of electricity,37.1291,15.2022,122,Y,Production of electricity,N,1.738309,1.915412,1692301.1629375103,4457116.971891176
IT_275,CENTRALE TERMOELETTRICA DI  FUSINA,IT-A-343,IT,3511.0,Production of electricity,45.4313,12.2458,128,Y,Production of electricity,N,1.664829,2.872828,1363196.220356273,5689678.340956369
IT_180,RAFFINERIA DI SANNAZZARO,IT-A-223,IT,1920.0,Refineries & petrochemical industry,45.0997,8.8768,133,Y,Refining,Y,1.627808,1.63698,988160.8558737374,5637230.890508562
IT_1013,Simeri Crichi,IT-A-1510,IT,3511.0,Production of electricity,38.875,16.6566,145,Y,Production of electricity,N,1.497053,1.392859,1854204.2303472436,4703782.178660086
IT_538,CENTRALE TERMOELETTRICA DI TERMINI IMERESE,IT-A-799,IT,3511.0,Production of electricity,37.9691,13.7483,163,Y,Production of electricity,N,1.299505,1.327576,1530453.7552731663,4575061.598369947
IT_986,TORVISCOSA,IT-A-1476,IT,3511.0,Production of electricity,45.8169,13.2897,166,Y,Production of electricity,N,1.268838,1.663817,1479402.636795372,5751055.710060299
IT_586,Centrale di Tavazzano e Montanaso,IT-A-859,IT,3511.0,Production of electricity,45.3345,9.4359,169,Y,Production of electricity,N,1.2529,1.536227,1050399.5831762569,5674336.285841984
IT_573,CENTRALE TERMOELETTRICA DI SULCIS,IT-A-839,IT,3511.0,Production of electricity,39.1962,8.4008,174,Y,Production of electricity,N,1.239365,1.389885,935172.7782561394,4749814.632180058
IT_559,Raffineria Isab Impianti Sud,IT-A-823,IT,1920.0,Refineries & petrochemical industry,37.13556,15.21944,176,Y,Refining,Y,1.231081,1.266964,1694220.310958788,4458018.9848546
IT_1026,Centrale Termoelettrica di Livorno Ferraris,IT-A-1509,IT,3511.0,Production of electricity,45.2377,8.1927,177,Y,Production of electricity,N,1.226922,1.092716,912007.1922220588,5659020.432870804
IT_14,Centrale Termoelettrica di Moncalieri,IT-A-15,IT,3511.0,Production of electricity,44.9925,7.6763,184,Y,Production of electricity,N,1.185837,1.137974,854521.8071764087,5620340.841957732
IT_754,Società EniPower - Stabilimento di Ferrara,IT-A-1145,IT,3511.0,Production of electricity,44.8499,11.5833,204,Y,Production of electricity,N,1.073859,1.084656,1289447.057705733,5597922.184745465
IT_543,CENTRALE TERMOELETTRICA DI SAN FILIPPO DEL MELA,IT-A-804,IT,3511.0,Production of electricity,38.2019,15.2808,210,Y,Production of electricity,N,1.05029,1.838449,1701050.874913861,4607986.9045730755
IT_307,CENTRALE TERMOELETTRICA DI  LA CASELLA,IT-A-387,IT,3511.0,Production of electricity,45.0899,9.4794,215,Y,Production of electricity,N,1.042494,1.572812,1055241.9810257636,5635685.522035517
IT_200,Centrale Termoelettrica di Ostiglia,IT-A-244,IT,3511.0,Production of electricity,45.0593,11.1387,224,Y,Production of electricity,N,0.998588,1.576767,1239954.4120990394,5630861.893607482
IT_955,Altomonte,IT-A-780,IT,3511.0,Production of electricity,39.7111,16.2147,228,Y,Production of electricity,N,0.986324,1.143418,1805012.1473656984,4824048.504483228
IT_216980,48643,0,IT,5100.0,Domestic aviation,,,232,Y,No EIGL,N,0.974066,0.796366,,
IT_200935,590,0,IT,5100.0,Domestic aviation,,,240,Y,No EIGL,N,0.963645,0.841024,,
IT_132,TURBIGO,IT-A-159,IT,3511.0,Production of electricity,45.5212,8.739,242,Y,Production of electricity,N,0.954808,0.664416,972821.0300424214,5703950.383232264
IT_46,S.A.R.P.O.M S.R.L.,IT-A-54,IT,1920.0,Refineries & petrochemical industry,45.4372,8.7858,245,Y,Refining,Y,0.947337,1.019083,978030.7822115486,5690614.295707317
IT_562,ERG Power,IT-A-826,IT,3511.0,Production of electricity,37.1291,15.2022,271,Y,Production of electricity,N,0.882512,0.93893,1692301.1629375103,4457116.971891176
IT_182,VOGHERA ENERGIA S.p.A.,IT-A-225,IT,3511.0,Production of electricity,45.0286,8.9733,272,Y,Production of electricity,N,0.879915,0.954329,998903.1867352874,5626025.09515476
IT_1010,Centrale Termoelettrica Leinì,IT-A-1511,IT,3511.0,Production of electricity,45.1622,7.7516,277,Y,Production of electricity,N,0.872393,0.806398,862904.1648331452,5647092.80305724
IT_358,CENTRALE TERMOELETTRICA DI  PORTO CORSINI,IT-A-551,IT,3511.0,Production of electricity,44.4844,12.2661,278,Y,Production of electricity,N,0.872178,1.138841,1365456.0060193783,5540712.782964046
IT_173,Italcementi-Cementeria di Rezzato,IT-A-211,IT,2351.0,Non-metallic minerals,45.5153,10.3444,306,Y,Cement,Y,0.808186,0.898887,1151533.3405619464,5703013.032255839
IT_560,Stabilimento Versalis di Priolo,IT-A-824,IT,2014.0,Chemical & petrochemical,37.1291,15.2022,313,Y,Chemicals,Y,0.799942,0.809898,1692301.1629375103,4457116.971891176
IT_270,MARGHERA LEVANTE,IT-A-338,IT,3511.0,Production of electricity,45.4458,12.2549,340,Y,Production of electricity,N,0.753219,0.859371,1364209.227722497,5691978.744036596
IT_416,CENTRALE TERMOELETTRICA DI SANTA BARBARA,IT-A-630,IT,3511.0,Production of electricity,43.5643,11.4777,357,Y,Production of electricity,N,0.725552,0.534071,1277691.7194779592,5398262.324872908
IT_752,Nuova Rosen,IT-A-1141,IT,3510.0,Production of electricity,43.3816,10.4494,358,Y,Production of electricity,N,0.725498,0.773396,1163221.8870952358,5370236.810853592
IT_139,Italcementi-Cementeria di Calusco d'Adda,IT-A-167,IT,2351.0,Non-metallic minerals,45.6866082,9.4684059,359,Y,Cement,Y,0.722839,0.735396,1054018.1234120328,5730269.409277311
IT_912,Impianto di produzione ammoniaca e urea,IT-A-1358,IT,2015.0,Chemical & petrochemical,44.856,11.5921,373,Y,Fertilizers,Y,0.702117,0.417926,1290426.6692247146,5598880.049692635
IT_63,Cementeria di Robilante,IT-A-76,IT,2351.0,Non-metallic minerals,44.2833,7.5,375,Y,Cement,Y,0.700973,0.797427,834896.180949558,5509388.693095559
IT_583,SESTO CAMPANO,IT-A-850,IT,2351.0,Non-metallic minerals,41.4456,14.0658,381,Y,Cement,Y,0.689345,0.662398,1565797.69360003,5078291.41023895
IT_1165,Centrale Termoelettrica di San Severo,IT-A-1621,IT,3511.0,Production of electricity,41.6578,15.4237,382,Y,Production of electricity,N,0.684417,0.889961,1716958.4301482197,5109856.578391157
IT_963,Centrale Termoelettrica Roselectra,IT-A-1475,IT,3511.0,Production of electricity,43.3816,10.4494,387,Y,Production of electricity,N,0.676725,0.918567,1163221.8870952358,5370236.810853592
IT_620,Centro Olio Val D’Agri,IT-A-920,IT,610.0,Energy sector,40.3136,15.8972,389,Y,No EIGL,N,0.669683,0.71063,1769668.2090388346,4911618.975061709
IT_512,Raffineria di Taranto,IT-A-759,IT,1920.0,Refineries & petrochemical industry,40.4892,17.193,393,Y,Refining,Y,0.66292,0.689916,1913916.0052087568,4937288.239027451
IT_1246,Centrale termoelettrica Torino Nord,IT-A-1690,IT,3500.0,Production of electricity,45.103,7.6105,399,Y,Production of electricity,N,0.654812,0.811827,847196.9846822149,5637751.329383268
IT_202,CENTRALE TERMOELETTRICA SERMIDE,IT-A-247,IT,3511.0,Production of electricity,45.0297,11.2511,468,Y,Production of electricity,N,0.546275,0.761288,1252466.7228642076,5626198.355812883
IT_965,Calenia Energia,IT-A-1474,IT,3511.0,Production of electricity,41.1774,14.1129,486,Y,Production of electricity,N,0.522624,0.926577,1571040.8416163933,5038543.442095648
IT_6,CENTRALE TERMOELETTRICA DI CHIVASSO,IT-A-7,IT,3511.0,Production of electricity,45.1854,7.9005,494,Y,Production of electricity,N,0.513299,1.122828,879479.6370122604,5650756.297930956
IT_202272,Impianto Idrogeno 2 RAM,IT-A-2049,IT,2011.0,Chemical & petrochemical,38.1977,15.268,506,Y,Chemicals,Y,0.500243,0.46987,1699625.985431704,4607391.960911761
IT_558,RAFFINERIA ISAB IMPIANTI NORD,IT-A-822,IT,1920.0,Refineries & petrochemical industry,37.1291,15.2022,509,Y,Refining,Y,0.49658,0.535059,1692301.1629375103,4457116.971891176
IT_94,CARAVATE,IT-A-115,IT,2351.0,Non-metallic minerals,45.8861697,8.6673761,512,Y,Cement,Y,0.494523,0.520397,964847.893965797,5762126.561246
IT_315,Cementeria di Vernasca,IT-A-395,IT,2351.0,Non-metallic minerals,44.7667,9.8,515,Y,Cement,Y,0.488155,0.473012,1090931.0097740886,5584867.648791643
IT_1115,CENTRALE TURBOGAS A CICLO COMBINATO DI SCANDALE,IT-A-1524,IT,3511.0,Production of electricity,41.90976293,12.45242668,518,Y,Production of electricity,N,0.486892,0.520243,1386197.7971581777,5147471.938087833
IT_428,Stabilimento di Gubbio,IT-A-649,IT,2351.0,Non-metallic minerals,43.3636,12.5467,522,Y,Cement,Y,0.482587,0.498444,1396692.2551359704,5367480.25269268
IT_97,UNITA' PRODUTTIVA DI TERNATE,IT-A-118,IT,2351.0,Non-metallic minerals,45.7819104,8.6816378,528,Y,Cement,Y,0.475942,0.502374,966435.4991476396,5745468.822466591
IT_1166,Centrale a ciclo combinato di Turano Lodigiano,IT-A-1656,IT,3511.0,Production of electricity,45.48212642,9.19579058,529,Y,Production of electricity,N,0.474171,1.024162,1023670.725252467,5697744.473277702
IT_654,CENTRALE TERMOELETTRICA DI CASSANO D'ADDA,IT-A-986,IT,3511.0,Production of electricity,45.5119,9.5102,535,Y,Production of electricity,N,0.463159,0.937515,1058670.6213421964,5702472.908530771
IT_1068,CENTRALE DI GISSI,IT-A-1526,IT,3511.0,Production of electricity,42.0497,14.5638,549,Y,Production of electricity,N,0.451843,0.731555,1621234.8000150856,5168427.172803439
IT_1245,Centrale a ciclo combinato di Aprilia,IT-A-1689,IT,3500.0,Production of electricity,41.5494,12.6308,558,Y,Production of electricity,N,0.436979,0.547519,1406054.2243116824,5093718.919294617
IT_362,Raffineria api di Falconara Marittima,IT-A-561,IT,1920.0,Refineries & petrochemical industry,43.6395,13.3813,560,Y,Refining,Y,0.435468,0.438586,1489599.502152039,5409822.414697517
IT_187,Acciaieria Arvedi S.p.A.,IT-A-230,IT,2410.0,Iron & steel,45.1494,9.9469,563,Y,Iron & steel,Y,0.434844,0.406891,1107283.842971616,5645072.203088623
IT_578,Cementeria di Fanna,IT-A-844,IT,2351.0,Non-metallic minerals,46.1778,12.7394,577,Y,Cement,Y,0.423066,0.315027,1418143.5210118345,5808887.718885716
IT_1031,Rizziconi Energia,IT-A-1535,IT,3511.0,Production of electricity,38.4408,15.9735,583,Y,Production of electricity,N,0.417071,0.743911,1778161.886186362,4641884.586885393
IT_145,Dalmine S.p.A.-Stabilimento di Dalmine,IT-A-174,IT,2420.0,Iron & steel,45.6425,9.5969,600,Y,Iron & steel,Y,0.40251,0.346499,1068322.021193974,5723243.513676779
IT_415,RASSINA,IT-A-628,IT,2351.0,Non-metallic minerals,43.6581,11.8367,601,Y,Cement,Y,0.40231,0.397954,1317655.4166727485,5412683.92335466
IT_311,CENTRALE TERMOELETTRICA DI PIACENZA LEVANTE,IT-A-391,IT,3511.0,Production of electricity,45.0545,9.7104,609,Y,Production of electricity,N,0.395927,0.675305,1080956.7833990094,5630105.4802842075
IT_555,Cementeria di Augusta,IT-A-819,IT,2351.0,Non-metallic minerals,37.194444,15.180555,610,Y,Cement,Y,0.395619,0.419549,1689891.652559286,4466244.540268169
IT_956,Candela,IT-A-1252,IT,3511.0,Production of electricity,41.2018,15.4759,615,Y,Production of electricity,N,0.393501,0.696479,1722769.307567625,5042152.839111796
IT_520,Stabilimento Versalis di Brindisi,IT-A-767,IT,2014.0,Chemical & petrochemical,40.6395,18.0022,618,Y,Chemicals,Y,0.391612,0.420161,2003995.7371586775,4959312.535656052
IT_526,Italcementi-Cementeria di Matera,IT-A-778,IT,2351.0,Non-metallic minerals,40.6753,16.6569,619,Y,Cement,Y,0.390621,0.394573,1854237.6261944857,4964565.815756563
IT_442,Cementeria di Guidonia,IT-A-672,IT,2351.0,Non-metallic minerals,42.0001,12.7167,628,Y,Cement,Y,0.38377,0.476931,1415616.5685708283,5160994.423576582
IT_281,Cementeria di Monselice,IT-A-350,IT,2351.0,Non-metallic minerals,45.2542,11.7517,660,Y,Cement,Y,0.349657,0.348628,1308193.2599553163,5661629.24287967
IT_79,Centrale Termoelettrica Vado Ligure,IT-A-98,IT,3511.0,Production of electricity,44.2766,8.4308,662,Y,Production of electricity,N,0.348269,1.070746,938512.3629799346,5508346.924764811
IT_542,MILAZZO,IT-A-803,IT,3511.0,Production of electricity,38.1977,15.268,667,Y,Production of electricity,N,0.344103,0.351761,1699625.985431704,4607391.960911761
IT_427,GHIGIANO,IT-A-648,IT,2351.0,Non-metallic minerals,43.2844,12.6178,676,Y,Cement,Y,0.336074,0.301883,1404607.0709313722,5355361.101720753
IT_258,Cementeria di Pederobba,IT-A-318,IT,2351.0,Non-metallic minerals,45.877777,11.966666,680,Y,Cement,Y,0.332973,0.333945,1332123.1656131835,5760784.485176901
IT_310,Cementeria di Piacenza,IT-A-390,IT,2351.0,Non-metallic minerals,45.0497,9.7186,682,Y,Cement,Y,0.330208,0.382199,1081869.6032235126,5629349.130448064
IT_506,Cementeria di Barletta,IT-A-750,IT,2351.0,Non-metallic minerals,41.3167,16.2892,687,Y,Cement,Y,0.326745,0.275506,1813305.4494297977,5059167.668796018
IT_440,Italcementi-Cementeria di Colleferro,IT-A-668,IT,2351.0,Non-metallic minerals,41.7367,13.0042,690,Y,Cement,Y,0.326434,0.327223,1447620.922173891,5121619.617381569
IT_435,Sito produttivo di Terni,IT-A-662,IT,2410.0,Iron & steel,42.5667,12.6667,716,Y,Iron & steel,Y,0.306687,0.347735,1410050.5940311635,5246250.012246337
IT_301,Centrale Termoelettrica di Monfalcone,IT-A-380,IT,3511.0,Production of electricity,45.7969,13.5455,717,Y,Production of electricity,N,0.305627,0.651035,1507878.162540294,5747861.824415232
IT_564,CENTRALE TERMOELETTRICA DI PRIOLO GARGALLO,IT-A-828,IT,3511.0,Production of electricity,37.1399,15.2164,721,Y,Production of electricity,N,0.302513,0.258232,1693881.8997067704,4458625.024430791
IT_217543,Presenzano,IT-A-2491,IT,3530.0,Production of steam,41.375996,14.0779726,728,Y,Production of steam,N,0.301093,0.00846,1567152.741233665,5067960.179171167
IT_513,Raffineria di Taranto,IT-A-760,IT,3511.0,Production of electricity,40.4892,17.193,731,Y,Production of electricity,N,0.298915,0.293027,1913916.0052087568,4937288.239027451
IT_45,Centrale di Cogenerazione,IT-A-52,IT,3511.0,Production of electricity,45.4406,8.6166,732,Y,Production of electricity,N,0.298723,0.291576,959195.524369328,5691153.703909241
IT_268,Raffineria di Venezia,IT-A-335,IT,1920.0,Refineries & petrochemical industry,45.4594,12.2667,740,Y,Refining,Y,0.29589,0.337511,1365522.797713857,5694136.900924797
IT_387,PORCARI,IT-A-591,IT,3511.0,Production of electricity,43.8233,10.6002,743,Y,Production of electricity,N,0.294337,0.313636,1180008.866306862,5438138.046301212
IT_403,Raffineria di Livorno,IT-A-613,IT,1920.0,Refineries & petrochemical industry,43.5872,10.3365,759,Y,Refining,Y,0.281522,0.191818,1150653.9165846787,5401781.088453071
IT_553,RAGUSA,IT-A-817,IT,2351.0,Non-metallic minerals,36.903055,14.725277,760,Y,Cement,Y,0.281353,0.322083,1639210.33742991,4425602.505314717
IT_404,Raffineria di Livorno - CTE,IT-A-614,IT,3511.0,Production of electricity,43.5879,10.3413,773,Y,Production of electricity,N,0.273351,0.260738,1151188.2501404854,5401888.669993404
IT_536,Italcementi-Cementeria di Isola delle Femmine,IT-A-797,IT,2351.0,Non-metallic minerals,38.190833,13.2503,788,Y,Cement,Y,0.263673,0.283188,1475016.6488581172,4606419.301940966
IT_759,SASOL ITALY - STABILIMENTO DI AUGUSTA,IT-A-1153,IT,2014.0,Chemical & petrochemical,37.2191,15.1752,794,Y,Chemicals,Y,0.261391,0.329377,1689295.5366860935,4469690.6627889825
IT_297,Acciaierie Bertoli Safau S.p.A.,IT-A-370,IT,2410.0,Iron & steel,46.0067,13.2534,803,Y,Iron & steel,Y,0.259007,0.238956,1475361.7392795782,5781422.9649674315
IT_794,STABILIMENTO ROSIGNANO MARITTIMO (LI),IT-A-1192,IT,2013.0,Chemical & petrochemical,43.3818,10.4504,806,Y,Chemicals,Y,0.25753,0.291913,1163333.2065860326,5370267.443874109
IT_957,Centrale di Teverola,IT-A-1472,IT,3511.0,Production of electricity,45.46442485,9.20608155,807,Y,Production of electricity,N,0.25691,0.338269,1024816.3102360348,5694934.416046085
IT_83,Iplom S.p.A. - Raffineria di Busalla,IT-A-103,IT,1920.0,Refineries & petrochemical industry,44.5752,8.9466,813,Y,Refining,Y,0.252794,0.282677,995930.9563311064,5554891.509501637
IT_1073,Marcegaglia Ravenna S.p.A.,IT-A-1552,IT,2410.0,Iron & steel,44.4681,12.2444,823,Y,Iron & steel,Y,0.247153,0.185419,1363040.3730691636,5538169.820602202
IT_832,CEMENTERIA COSTANTINOPOLI SRL,IT-A-1240,IT,2351.0,Non-metallic minerals,40.9497,15.6736,825,Y,Cement,Y,0.246154,0.257538,1744777.1708974552,5004925.253924867
IT_469,Centrale Termoelettrica Napoli,IT-A-705,IT,3511.0,Production of electricity,40.834,14.301,831,Y,Production of electricity,N,0.243867,0.510977,1591980.0378346103,4987887.449077644
IT_909,Unicalce - Stabilimento di Brembilla,IT-A-1354,IT,2352.0,Non-metallic minerals,45.7886,9.6261,863,Y,Lime,Y,0.231572,0.228593,1071572.5503251378,5746536.698457893
IT_201295,11479,0,IT,5100.0,Domestic aviation,,,865,Y,No EIGL,N,0.231158,0.152353,,
IT_547,Raffineria di Gela S.P.A.,IT-A-808,IT,1920.0,Refineries & petrochemical industry,37.0588975,14.2612156,905,Y,Refining,Y,0.211194,0.164466,1587551.258685097,4447319.521932032
IT_1004,Ferrero Industriale Italia,IT-A-1507,IT,3511.0,Production of electricity,44.7039,8.0272,907,Y,Production of electricity,N,0.209288,0.20174,893583.8164957713,5575026.432730439
IT_1049,Orion Engineered Carbons Srl S.r.l.,IT-A-1536,IT,2013.0,Chemical & petrochemical,44.4333,12.2333,914,Y,Chemicals,Y,0.207815,0.229092,1361804.7267213585,5532743.049360339
IT_430,CENTRALE TERMOELETTRICA DI PIETRAFITTA,IT-A-652,IT,3511.0,Production of electricity,42.9946,12.2003,917,Y,Production of electricity,N,0.206253,0.248824,1358131.1835251786,5311149.947998773
IT_983,UNITA' PRODUTTIVA DI MONTICHIARI,IT-A-1436,IT,2352.0,Non-metallic minerals,45.4594,10.3316,924,Y,Lime,Y,0.203439,0.216088,1150108.4510797893,5694136.900924797
IT_864,STABILIMENTO DI TAVERNOLA BERGAMASCA,IT-A-1286,IT,2351.0,Non-metallic minerals,45.7167,10.0333,952,Y,Cement,Y,0.195292,0.240347,1116901.8469761575,5735065.84364252
IT_522,GALATINA,IT-A-770,IT,2351.0,Non-metallic minerals,40.1678,18.1997,964,Y,Cement,Y,0.192643,0.268253,2025981.336590348,4890356.563740458
IT_261,FORNI PER PRODUZIONE CALCE,IT-A-328,IT,2352.0,Non-metallic minerals,45.81583,12.25972,966,Y,Lime,Y,0.192233,0.186942,1364745.78766812,5750884.808139838
IT_1098,Centrale a ciclo combinato di Modugno,IT-A-1257,IT,3511.0,Production of electricity,41.1024,16.7564,971,Y,Production of electricity,N,0.191009,0.438225,1865313.9155284136,5027457.393494199
IT_563,CTE RAFFINERIA ISAB IMPIANTI SUD,IT-A-827,IT,3511.0,Production of electricity,37.1291,15.2022,975,Y,Production of electricity,N,0.189774,0.200116,1692301.1629375103,4457116.971891176
IT_438,Centrale Termoelettrica Torrevaldaliga,IT-A-666,IT,3511.0,Production of electricity,42.1275,11.7586,980,Y,Production of electricity,N,0.187297,0.540248,1308961.3644417932,5180097.500981578
IT_1046,Cabot Italiana SpA,IT-A-1538,IT,2013.0,Chemical & petrochemical,44.45,12.25,984,Y,Chemicals,Y,0.186766,0.204097,1363663.7622176076,5535346.87226348
IT_205605,Portovesme s.r.l. Stabilimento di Portovesme,IT-A-2185,IT,2443.0,Non-ferrous metals,39.2091,8.4079,1000,Y,Non-ferrous metals,Y,0.183384,0.235415,935963.1466407694,4751667.765703569
IT_65,VERZUOLO,IT-A-78,IT,3511.0,Production of electricity,44.5942,7.4847,1010,Y,Production of electricity,N,0.180557,0.200333,833192.9927404183,5557861.223349084
IT_296,Ferriere Nord Spa - Stabilimento di Osoppo,IT-A-368,IT,2410.0,Iron & steel,46.2306,13.0778,1024,Y,Iron & steel,Y,0.17671,0.173952,1455814.0366962757,5817380.353558028
IT_70,ROQUETTE ITALIA S.p.A.,IT-A-85,IT,1062.0,"Food, beverages & tobacco",44.75771595,8.85615888,1030,Y,No EIGL,Y,0.175845,0.241106,985863.0974625332,5583459.127558855
IT_985,Centrale a ciclo combinato di Termoli,IT-A-1256,IT,3511.0,Production of electricity,41.9372,15.0005,1036,Y,Production of electricity,N,0.174341,0.408944,1669848.0216445052,5151576.945645581
IT_479,CEMENTERIA DI CAGNANO AMITERNO,IT-A-718,IT,2351.0,Non-metallic minerals,42.46361,13.25861,1038,Y,Cement,Y,0.17395,0.160242,1475941.7138266086,5230680.955089013
IT_1072,Alto Garda Power,IT-A-1540,IT,3511.0,Production of electricity,45.887,10.853472,1061,Y,Production of electricity,N,0.166831,0.17211,1208202.97637906,5762259.345482354
IT_210593,CENTRO OLIO TEMPA ROSSA,IT-A-2445,IT,3530.0,Production of steam,40.4101,16.0871,1069,Y,Production of steam,N,0.163581,0.172764,1790807.7803404797,4925717.087071936
IT_818,Stabilimento di Narni,IT-A-1225,IT,2352.0,Non-metallic minerals,42.4795,12.5315,1087,Y,Lime,Y,0.159502,0.163348,1395000.1988759134,5233079.0521484325
IT_992,CALMECEMENTI,IT-A-1471,IT,2351.0,Non-metallic minerals,38.9141,16.4489,1111,Y,Cement,Y,0.153984,0.145533,1831083.172109482,4709374.593145902
IT_540,Centrale di compressione gas di Messina,IT-A-801,IT,4950.0,Pipeline transport,38.1937335,15.5542057,1122,Y,No EIGL,N,0.151061,0.131191,1731486.258217841,4606830.124791627
IT_605,DOLOMITE FRANCHI S.p.A.,IT-A-891,IT,2320.0,Non-metallic minerals,45.737778,10.093611,1128,Y,Ceramics & Refractory,Y,0.149643,0.178011,1123615.6367853922,5738427.076183822
IT_567,Cementeria di Siniscola,IT-A-831,IT,2351.0,Non-metallic minerals,40.5425,9.7192,1132,Y,Cement,Y,0.149276,0.145467,1081936.394917991,4945092.927668115
IT_221,PRODUZIONE CALCE VIVA CERAINO,IT-A-268,IT,2352.0,Non-metallic minerals,45.5792,10.8333,1148,Y,Lime,Y,0.145472,0.147613,1205957.439610778,5713170.257744345
IT_322,RETE 2,IT-A-429,IT,3530.0,Production of steam,44.7,10.6167,1149,Y,Production of steam,N,0.143941,0.141959,1181845.6379049516,5574415.626655296
IT_202087,Impianto Idrogeno,IT-A-2087,IT,2011.0,Chemical & petrochemical,37.167,15.1973,1156,Y,Chemicals,Y,0.142678,0.157584,1691755.6974326211,4462410.067463367
IT_1082,cogenerazione elyo presso michelin cuneo,IT-A-1583,IT,3511.0,Production of electricity,44.4378,7.5678,1161,Y,Production of electricity,N,0.140766,0.149318,842443.6424253394,5533444.605034128
IT_287,Castelmassa,IT-A-358,IT,3530.0,Production of steam,45.02311681,11.31754172,1170,Y,Production of steam,N,0.138287,0.157929,1259862.981302037,5625161.489263598
IT_1052,Birla Carbon Italy s.r.l.,IT-A-1539,IT,2013.0,Chemical & petrochemical,45.4348,8.7951,1185,Y,Chemicals,Y,0.134796,0.14795,979066.0534759256,5690233.556544607
IT_12,Munksjo Italia S.p.A. - Stabilimento di Mathi,IT-A-13,IT,1712.0,"Paper, pulp & printing",45.2533,7.5397,1188,Y,Pulp & paper,Y,0.13424,0.143966,839315.564734049,5661486.924610443
IT_67,SPINETTA MARENGO,IT-A-81,IT,3511.0,Production of electricity,44.88556,8.670278,1201,Y,Production of electricity,N,0.130393,0.129573,965170.9319961282,5603523.206898697
IT_574,Italcementi-Cementeria di Samatzai,IT-A-840,IT,2351.0,Non-metallic minerals,39.46972,9.024167,1206,Y,Cement,Y,0.129774,0.207554,1004565.6752734672,4789180.023969572
IT_75,Cokeria di San Giuseppe di Cairo,IT-A-94,IT,1910.0,Coke ovens,44.3808,8.2897,1208,Y,Iron & steel,Y,0.129374,0.129179,922805.1828290042,5524562.221224465
IT_64,Sedamyl Saluzzo,IT-A-77,IT,1062.0,"Food, beverages & tobacco",44.649444,7.483333,1214,Y,No EIGL,Y,0.128459,0.126464,833040.8189965084,5566501.420918119
IT_100,CENTRALE DI COGENERAZIONE AEROPORTO MALPENSA,IT-A-121,IT,3511.0,Production of electricity,45.6203,8.7397,1239,Y,Production of electricity,N,0.122997,0.118312,972898.953685976,5719709.418400221
IT_124,Centrale di Cogenerazione,IT-A-150,IT,3500.0,Production of electricity,45.4172,9.2828,1270,Y,Production of electricity,N,0.118706,0.120528,1033356.5691358072,5687441.9639729615
IT_151,Stabilimento di Scanzorosciate,IT-A-180,IT,2014.0,Chemical & petrochemical,45.7052722,9.739933,1276,Y,Chemicals,Y,0.117556,0.127579,1084244.3819206085,5733244.023672619
IT_164,ALFA ACCIAI S.p.A.,IT-A-195,IT,2410.0,Iron & steel,45.5333,10.2269,1281,Y,Iron & steel,Y,0.116682,0.124242,1138453.3003937358,5705873.0546572935
IT_908,Unicalce - Stabilimento di Lecco,IT-A-1353,IT,2352.0,Non-metallic minerals,45.8392,9.4186,1282,Y,Lime,Y,0.116462,0.12095,1048473.7559855294,5754618.2454470005
IT_223,Stabilimento di GAZZO VERONESE,IT-A-271,IT,2313.0,Non-metallic minerals,45.1436,11.0928,1283,Y,Glass,Y,0.116383,0.110971,1234844.8474716328,5644156.768120046
IT_264,IMPIANTO PER LA PRODUZIONE DI VETRO CAVO MECCANICO,IT-A-331,IT,2313.0,Non-metallic minerals,45.7825,12.9114,1286,Y,Glass,Y,0.116176,0.122031,1437290.4734282803,5745562.936500064
IT_195,Stabilimento Versalis di Mantova,IT-A-239,IT,2014.0,Chemical & petrochemical,45.1457,10.8376,1289,Y,Chemicals,Y,0.115689,0.152093,1206436.1134211891,5644488.207955321
IT_205586,Polynt S.P.A Stabilimento di Ravenna,IT-A-2096,IT,2014.0,Chemical & petrochemical,44.4333,12.2375,1290,Y,Chemicals,Y,0.115645,0.119461,1362272.268582693,5532743.049360339
IT_209723,Pilkington Italia S.p.A. stab. Porto Marghera,IT-A-2430,IT,2311.0,Non-metallic minerals,45.4644,12.2592,1322,Y,Glass,Y,0.111471,0.115035,1364687.9015329017,5694930.471822955
IT_48,Calce Dolomia S.p.A. - Stabilimento di Bernezzo,IT-A-57,IT,2352.0,Non-metallic minerals,44.3911,7.4175,1328,Y,Lime,Y,0.110431,0.130488,825712.322959115,5526166.642996281
IT_298,Mosaico Srl - Stabilimento di Tolmezzo,IT-A-374,IT,1712.0,"Paper, pulp & printing",46.3939,13.0169,1340,Y,Pulp & paper,Y,0.108189,0.125491,1449034.679706965,5843698.234327158
IT_282,ACCIAIERIE VENETE STABILIMENTO DI CAMIN,IT-A-351,IT,2410.0,Iron & steel,45.3833,11.95,1348,Y,Iron & steel,Y,0.107235,0.117485,1330267.914979624,5682067.426914854
IT_1228,SISECAM FLAT GLASS ITALY SRL,IT-A-1681,IT,2311.0,Non-metallic minerals,45.7701,13.2324,1374,Y,Glass,Y,0.103879,0.120744,1473024.0299729176,5743583.81432702
IT_209746,Burgo Group S.p.A. Stabilimento di Avezzano,IT-A-2437,IT,1712.0,"Paper, pulp & printing",41.9941,13.4408,1381,Y,Pulp & paper,Y,0.103368,0.109287,1496223.0118542342,5160095.69363114
IT_249,AFV ACCIAIERIE BELTRAME SPA,IT-A-305,IT,2410.0,Iron & steel,45.5194,11.5083,1383,Y,Iron & steel,Y,0.103128,0.103314,1281098.0958962387,5703664.401329085
IT_53,Stabilimento di Cuneo,IT-A-64,IT,2311.0,Non-metallic minerals,44.3867,7.5908,1386,Y,Glass,Y,0.102924,0.108998,845003.9907135876,5525481.224397851
IT_436,Centrale di compressione gas di Gallese,IT-A-663,IT,4950.0,Pipeline transport,42.3716913,12.402601,1387,Y,No EIGL,N,0.102855,0.093263,1380651.2278321525,5216820.637624552
IT_216620,Italcementi - Cementeria di Sarche,IT-A-2484,IT,2351.0,Non-metallic minerals,46.0380332,10.9620822,1398,Y,Cement,Y,0.101326,0.067786,1220293.4085380142,5786446.163392175
IT_412,SAINT-GOBAIN GLASS ITALIA S.P.A.,IT-A-625,IT,2311.0,Non-metallic minerals,43.7061,10.3858,1407,Y,Glass,Y,0.100769,0.107243,1156141.967480789,5420072.559916401
IT_212501,SISECAM FLAT GLASS SOUTH ITALY S.R.L.,IT-A-2464,IT,2311.0,Non-metallic minerals,41.73968,15.94506,1411,Y,Glass,Y,0.100189,0.121712,1774995.9598682025,5122064.182481461
IT_493,Stabilimento di San Salvo,IT-A-733,IT,2311.0,Non-metallic minerals,42.06667,14.73333,1418,Y,Glass,Y,0.099453,0.100095,1640106.793289264,5170971.524338721
IT_202463,Mirage Granito Ceramico S.p.A.,IT-A-2201,IT,2331.0,Non-metallic minerals,44.3776,10.8212,1422,Y,Ceramics & Refractory,Y,0.098812,0.09816,1204610.4737721756,5524063.817561314
IT_126,SESTO SAN GIOVANNI,IT-A-152,IT,3511.0,Production of electricity,45.5422,9.2525,1430,Y,Production of electricity,N,0.097343,0.096996,1029983.5885647696,5707287.5150433
IT_78,Stabilimento di Dego,IT-A-97,IT,2313.0,Non-metallic minerals,44.4447,8.3089,1433,Y,Glass,Y,0.097055,0.090749,924942.5170522364,5534520.428679096
IT_1070,Rigassificatore Adriatic LNG,IT-A-1555,IT,5222.0,Commercial & public services,45.0660602,11.8056517,1449,Y,No EIGL,N,0.095408,0.100947,1314199.1357267508,5631927.314923275
IT_209324,STABILIMENTO DI MANTOVA,IT-A-2429,IT,1712.0,"Paper, pulp & printing",45.1776,10.7984,1453,Y,Pulp & paper,Y,0.09476,0.093859,1202072.3893820934,5649524.439143027
IT_219280,49312,0,IT,5100.0,Domestic aviation,,,1462,Y,No EIGL,N,0.093778,,,
IT_475,INDUSTRIA DEI PRODOTTI MINERALI,IT-A-712,IT,2352.0,Non-metallic minerals,40.61606387,15.366955,1468,Y,Lime,Y,0.093003,0.075491,1710641.6056431576,4955875.051468971
IT_476,Centrale di Montesano sulla Marcellana,IT-A-714,IT,4950.0,Pipeline transport,40.2534611,15.7479539,1476,Y,No EIGL,N,0.092147,0.108026,1753054.2091839495,4902843.205932382
IT_201,CENTRALE TERMOELETTRICA DI PONTI SUL MINCIO,IT-A-245,IT,3511.0,Production of electricity,45.3983,10.7146,1481,Y,Production of electricity,N,0.091581,0.356031,1192743.8160536173,5684445.142921431
IT_1051,TLR IMOLA - CENTRALE COGEN CASALEGNO,IT-A-1561,IT,3530.0,Production of steam,44.3697,11.7031,1482,Y,Production of steam,N,0.091556,0.106317,1302783.132702767,5522833.500130481
IT_632,CARTIERE  VILLA LAGARINA SPA,IT-A-933,IT,1712.0,"Paper, pulp & printing",45.9197,11.0347,1485,Y,Pulp & paper,Y,0.091487,0.09242,1228377.1850565406,5767490.4134676065
IT_203816,Marcegaglia Gazoldo Inox S.p.A.,IT-A-2274,IT,2410.0,Iron & steel,45.1947,10.5664,1489,Y,Iron & steel,Y,0.091151,0.043925,1176246.2675180507,5652225.273259464
IT_420,Centrale di Terranuova Bracciolini,IT-A-635,IT,4950.0,Pipeline transport,43.5567727,11.6404184,1499,Y,No EIGL,N,0.090689,0.04504,1295805.448908657,5397105.988649112
IT_492,Flovetro S.p.A.,IT-A-732,IT,2311.0,Non-metallic minerals,42.04566531,14.7326348,1507,Y,Glass,Y,0.089944,0.088921,1640029.403979265,5167822.342379152
IT_73,Stabilimento Siderurgico di Aosta,IT-A-92,IT,2410.0,Iron & steel,45.7336,7.3222,1531,Y,Iron & steel,Y,0.087962,0.099021,815103.5754865151,5737760.724815096
IT_457,Burgo Group S.p.A. Stabilimento di Sora,IT-A-690,IT,1712.0,"Paper, pulp & printing",41.6994,13.5869,1541,Y,Pulp & paper,Y,0.086814,0.154405,1512486.7894591363,5116056.838399691
IT_205,Stabilimento di Villa Poma,IT-A-250,IT,2313.0,Non-metallic minerals,45.0051,11.1135,1542,Y,Glass,Y,0.08672,0.086204,1237149.1609310508,5622324.412550163
IT_867,"Feralpi Siderurgica S.p.A,. Stabilimento di Lonato",IT-A-1289,IT,2410.0,Iron & steel,45.4625,10.459167,1551,Y,Iron & steel,Y,0.085815,0.093638,1164309.1445618148,5694628.906591059
IT_57,Stabilimento di Romagnano Sesia,IT-A-69,IT,1722.0,"Paper, pulp & printing",45.615,8.4022,1572,Y,Pulp & paper,Y,0.083717,0.088623,935328.6255432488,5718865.899883775
IT_363,Centrale Termoelettrica api di Falconara Marittima,IT-A-562,IT,3511.0,Production of electricity,43.6395,13.3813,1576,Y,Production of electricity,N,0.083424,0.085413,1489599.502152039,5409822.414697517
IT_115,VIDRALA ITALIA SRL,IT-A-139,IT,2313.0,Non-metallic minerals,45.429722,9.093056,1597,Y,Glass,Y,0.081333,0.076728,1012234.3636747262,5689428.029303668
IT_163,O.R.I. MARTIN S.P.A.,IT-A-194,IT,2410.0,Iron & steel,45.5333,10.2269,1603,Y,Iron & steel,Y,0.081012,0.0847,1138453.3003937358,5705873.0546572935
IT_207560,Sasol Italy Energia - Stabilimento di Augusta,IT-A-2409,IT,3500.0,Production of electricity,37.2191,15.1752,1609,Y,Production of electricity,N,0.080669,0.131364,1689295.5366860935,4469690.6627889825
IT_235,ACCIAIERIE DI VERONA S.p.A.,IT-A-285,IT,2410.0,Iron & steel,45.4333,11.0,1620,Y,Iron & steel,Y,0.079859,0.087418,1224514.3987260156,5689995.602790507
IT_397,IMPIANTO PER LA PRODUZIONE DI VETRO CAVO MECCANICO,IT-A-602,IT,2313.0,Non-metallic minerals,43.7139,10.8997,1621,Y,Glass,Y,0.079854,0.089544,1213349.0537994497,5421273.772021901
IT_285,CARTIERE DEL POLESINE SPA STABILIMENTO DI ADRIA,IT-A-356,IT,1721.0,"Paper, pulp & printing",45.045278,12.153889,1630,Y,Pulp & paper,Y,0.079254,0.077281,1352964.7346379743,5628652.39933235
IT_205941,FSRU Toscana,IT-A-2371,IT,3520.0,Energy sector,43.7228386,10.4016888,1632,Y,Production of gas,N,0.079001,0.080428,1157910.700606102,5422650.522556896
IT_1172,FORNACI ZULIAN s.r.l.,IT-A-1519,IT,2352.0,Non-metallic minerals,45.6298,11.7543,1639,Y,Lime,Y,0.078594,0.068299,1308482.690631382,5721221.585128374
IT_739,Lfoundry S.r.l.,IT-A-1120,IT,2611.0,Machinery,41.9941,13.4408,1648,Y,No EIGL,Y,0.078181,0.076653,1496223.0118542342,5160095.69363114
IT_964,NLMK VERONA S.P.A.,IT-A-1205,IT,2410.0,Iron & steel,45.3331,11.0708,1653,Y,Iron & steel,Y,0.077732,0.079106,1232395.8186741816,5674114.589155133
IT_259,STABILIMENTO DI SAN POLO (TV),IT-A-326,IT,2313.0,Non-metallic minerals,45.87244252,12.2549881,1657,Y,Glass,Y,0.077593,0.080056,1364219.0349696325,5759931.554218642
IT_372,SMURFIT KAPPA ANIA PAPER,IT-A-575,IT,1712.0,"Paper, pulp & printing",44.0092,10.4972,1674,Y,Pulp & paper,Y,0.075822,0.079271,1168542.9587551537,5466866.014910316
IT_1063,Centrale compressione gas di Poggio Renatico,IT-A-1529,IT,4950.0,Pipeline transport,45.4245706,9.2622668,1678,Y,No EIGL,N,0.075564,0.068977,1031070.8237674522,5688610.93260803
IT_599,CARTIERE CARRARA SpA - STABILIMENTO  Tassignano,IT-A-877,IT,1712.0,"Paper, pulp & printing",43.8278,10.5628,1687,Y,Pulp & paper,Y,0.075113,0.069645,1175845.5173511943,5438832.393327318
IT_486,Centrale termoelettrica,IT-A-726,IT,3530.0,Production of steam,42.08442063,14.47065,1688,Y,Production of steam,N,0.075061,0.076926,1610865.389447688,5173633.645426659
IT_201264,28484,0,IT,5100.0,Domestic aviation,,,1692,Y,No EIGL,N,0.074762,0.068836,,
IT_146,Lucchini Industries S.r.l.-Stabilimento di Lovere,IT-A-175,IT,2410.0,Iron & steel,45.8167,10.0672,1697,Y,Iron & steel,Y,0.07422,0.06816,1120675.5777140516,5751023.765526558
IT_205395,Stabilimento di Schio,IT-A-2365,IT,2352.0,Non-metallic minerals,45.7161,11.4222,1699,Y,Lime,Y,0.074025,0.069793,1271513.487738933,5734970.182371417
IT_203918,Florim Spa SB Stabilimento di Mordano,IT-A-2029,IT,2331.0,Non-metallic minerals,44.4031,11.7586,1725,Y,Ceramics & Refractory,Y,0.072207,0.089743,1308961.3644417932,5528036.228396163
IT_260,UNITA' PRODUTTIVA DI SPRESIANO,IT-A-327,IT,2352.0,Non-metallic minerals,45.794722,12.260278,1729,Y,Lime,Y,0.072084,0.061518,1364807.9039439776,5747514.079492659
IT_206681,Gold Art Ceramica Spa,IT-A-2356,IT,2331.0,Non-metallic minerals,44.3776,10.8212,1736,Y,Ceramics & Refractory,Y,0.071712,0.067923,1204610.4737721756,5524063.817561314
IT_695,Lucart Spa - Stabilimento di Diecimo,IT-A-1030,IT,1722.0,"Paper, pulp & printing",43.9503,10.5017,1749,Y,Pulp & paper,Y,0.071103,0.076657,1169043.8964637243,5457754.212423139
IT_209643,PROFILGLASS S.P.A.,IT-A-2427,IT,2440.0,Non-ferrous metals,43.7917,13.0167,1757,Y,Non-ferrous metals,Y,0.070287,0.06645,1449012.415808812,5433263.66066081
IT_218320,Giano 1264 S.R.L.,IT-A-2497,IT,1712.0,"Paper, pulp & printing",43.324083,12.892052,1769,Y,Pulp & paper,Y,0.068809,0.0,1435136.663920408,5361431.40285836
IT_1086,CENTRALE DI COGENERAZIONE BEM,IT-A-1570,IT,3511.0,Production of electricity,45.507614,9.273914,1777,Y,Production of electricity,N,0.068617,0.068117,1032367.3841406162,5701792.081406874
IT_202343,ALCANTARA,IT-A-1707,IT,3511.0,Production of electricity,42.4983757,12.4738871,1796,Y,Production of electricity,N,0.067222,0.068858,1388586.760184792,5235928.538487023
IT_813,Comprensorio di Pedrignano,IT-A-1217,IT,1073.0,"Food, beverages & tobacco",44.8144,10.3783,1797,Y,No EIGL,Y,0.067163,0.070156,1155307.0712998337,5592349.736782251
IT_326,Stabilimento Ferrari di Maranello,IT-A-482,IT,3530.0,Production of steam,44.5317,10.8644,1803,Y,Production of steam,N,0.066798,0.071676,1209419.4757744465,5548096.079387462
IT_89,STABILIMENTO GNL DI PANIGAGLIA,IT-A-109,IT,3520.0,Energy sector,44.07975019,9.82517858,1804,Y,Production of gas,N,0.066728,0.056267,1093733.876255942,5477792.01473043
IT_262,CARTIERA DI VILLORBA,IT-A-329,IT,1712.0,"Paper, pulp & printing",45.7487,12.2505,1811,Y,Pulp & paper,Y,0.066324,0.072091,1363719.4219630028,5740169.267148233
IT_652,Bunge Italia S.p.A. Stabilimento di Porto Corsini,IT-A-984,IT,1041.0,"Food, beverages & tobacco",44.4816,12.261,1812,Y,No EIGL,Y,0.066229,0.060444,1364888.2766163298,5540275.904538765
IT_202162,MARAZZI Stabilimento Fiorano Modenese,IT-A-2193,IT,2331.0,Non-metallic minerals,44.5394,10.8314,1814,Y,Ceramics & Refractory,Y,0.066135,0.067752,1205745.9325782668,5549298.578735679
IT_205332,Itelyum Regeneration  Srl Stab. di Pieve Fissiraga,IT-A-2298,IT,1920.0,Refineries & petrochemical industry,45.2722,9.4505,1817,Y,Refining,Y,0.065954,0.05779,1052024.8477418358,5664476.08205556
IT_445,Stabilimento di APRILIA (LT),IT-A-676,IT,2313.0,Non-metallic minerals,41.55,12.6167,1831,Y,Glass,Y,0.065452,0.065889,1404484.6194914987,5093808.167584608
IT_202306,Ceramiche Atlas Concorde S.p.A.,IT-A-2187,IT,2331.0,Non-metallic minerals,44.5435,10.8495,1844,Y,Ceramics & Refractory,Y,0.064252,0.071101,1207760.8153616253,5549938.935478689
IT_1089,Centrale di Cogenerazione Aeroporto di Fiumicino,IT-A-1551,IT,3511.0,Production of electricity,41.8908,12.228,1860,Y,Production of electricity,N,0.063826,0.074624,1361214.7334201564,5144635.8232218055
IT_23,centrale termoelettrica,IT-A-26,IT,3530.0,Production of steam,45.026,7.6156,1867,Y,Production of steam,N,0.063419,0.078486,847764.7140852574,5625615.583198565
IT_750,Stabilimneto di Santa Giustina,IT-A-1137,IT,1712.0,"Paper, pulp & printing",46.0708,12.0431,1870,Y,Pulp & paper,Y,0.063294,0.072643,1340631.759572477,5791702.237972048
IT_802,Stabilimento di Castellana Grotte (BA),IT-A-1203,IT,2313.0,Non-metallic minerals,40.8686,17.1872,1879,Y,Glass,Y,0.062961,0.062201,1913270.35216216,4992979.470608498
IT_694,Lucart Spa,IT-A-1029,IT,1712.0,"Paper, pulp & printing",43.8481,10.6064,1896,Y,Pulp & paper,Y,0.062156,0.065634,1180699.0471497842,5441965.320818225
IT_205326,Pontenossa s.p.a.,IT-A-2014,IT,2443.0,Non-ferrous metals,45.8656,9.8839,1897,Y,Non-ferrous metals,Y,0.062118,0.069235,1100270.7150516412,5758837.622321269
IT_86,Stabilimento di Genova Comigliano,IT-A-106,IT,2410.0,Iron & steel,44.4094,8.8711,1904,Y,Iron & steel,Y,0.061742,0.066124,987526.334776217,5529017.9142476525
IT_175,ACCIAIERIE VENETE S.p.A. Stabilimento di Sarezzo,IT-A-214,IT,2410.0,Iron & steel,45.6489,10.2008,1911,Y,Iron & steel,Y,0.061413,0.063795,1135547.861684033,5724262.611985611
IT_393,Stabilimento di Pescia,IT-A-598,IT,2313.0,Non-metallic minerals,43.8683,10.6864,1919,Y,Glass,Y,0.060834,0.061113,1189604.606413244,5445083.87372528
IT_800,VETRERIA COOPERATIVA PIEGARESE,IT-A-1201,IT,2313.0,Non-metallic minerals,42.9667,12.0833,1920,Y,Glass,Y,0.0608,0.07335,1345106.80310237,5306904.620135039
IT_667,O-I ITALY SPA - STABILIMENTO DI ASTI,IT-A-1001,IT,2313.0,Non-metallic minerals,44.9044,8.2708,1950,Y,Glass,Y,0.059079,0.059276,920701.2444530142,5606483.75780227
IT_383,Cartiere Modesto Cardella S.p.A.,IT-A-587,IT,1712.0,"Paper, pulp & printing",43.8667,10.5333,1960,Y,Pulp & paper,Y,0.058809,0.060281,1172561.5923727946,5444836.8211007295
IT_271,STABILIMENTO VERSALIS DI PORTO MARGHERA,IT-A-339,IT,2014.0,Chemical & petrochemical,45.4438,12.2363,1965,Y,Chemicals,Y,0.058659,0.320499,1362138.6851937366,5691661.411911099
IT_72,Stabilimento di Novi Ligure,IT-A-89,IT,2410.0,Iron & steel,44.7764,8.7647,1974,Y,Iron & steel,Y,0.058071,0.059564,975681.9409558118,5586388.662785662
IT_609,Essity PLD Italy stab Lucca 1,IT-A-898,IT,1712.0,"Paper, pulp & printing",43.8292,10.6042,1979,Y,Pulp & paper,Y,0.057771,0.063357,1180454.1442700368,5439048.4230781365
IT_801,Vetreria Etrusca Srl,IT-A-1202,IT,2313.0,Non-metallic minerals,44.3328,8.3269,1996,Y,Glass,Y,0.057202,0.050867,926946.2678865122,5517089.024110221
IT_205592,Metinvest Trametal SpA,IT-A-2183,IT,2410.0,Iron & steel,45.7917,13.2225,1998,Y,Iron & steel,Y,0.057165,0.045909,1471921.9670140625,5747031.601931394
IT_205530,T2D SpA - Stabilimento di Todi,IT-A-2327,IT,2332.0,Non-metallic minerals,42.7773,12.4124,1999,Y,Ceramics & Refractory,Y,0.057151,0.075346,1381742.047522434,5278135.834109956
IT_229,Centrale di Cogenerazione di Borgo Trento,IT-A-278,IT,3530.0,Production of steam,45.4614,10.9667,2000,Y,Production of steam,N,0.057144,0.057915,1220807.4596826,5694454.320838791
IT_464,Centrale di compressione gas di Melizzano,IT-A-698,IT,4950.0,Pipeline transport,41.1735705,14.4731559,2006,Y,No EIGL,N,0.056743,0.043285,1611144.3449596688,5037977.081159312
IT_1022,CENTRALE DI COGENERAZIONE LINATE,IT-A-1505,IT,3511.0,Production of electricity,45.42301,9.05591475,2013,Y,Production of electricity,N,0.056212,0.054413,1008099.8186373016,5688363.410517656
IT_203475,1039,0,IT,5100.0,Domestic aviation,,,2022,Y,No EIGL,N,0.055816,0.046747,,
IT_523,centrale termoelettrica,IT-A-772,IT,3530.0,Production of steam,41.0689,15.7367,2026,Y,Production of steam,N,0.055746,0.065792,1751801.430766513,5022509.716057546
IT_202037,Florim Ceramiche Spa SB - Stab FLOORGRES,IT-A-2030,IT,2331.0,Non-metallic minerals,44.5311,10.8267,2033,Y,Ceramics & Refractory,Y,0.055525,0.079568,1205222.7309715431,5548002.384816772
IT_210014,Itelyum Landriano,IT-A-2426,IT,3530.0,Production of steam,45.3075,9.2517,2036,Y,Production of steam,N,0.055364,0.056214,1029894.5329721324,5670061.672804502
IT_212523,ZOOGAMMA CASALBUTTANO,IT-A-2471,IT,,#XL_EVAL_ERROR#,45.250691,9.964417,2047,Y,No EIGL,N,0.055017,0.056191,1109233.8264918416,5661074.372506263
IT_201849,CASALGRANDE PADANA S.P.A.-STAB.DINAZZANO,IT-A-2301,IT,2331.0,Non-metallic minerals,44.5767,10.7358,2049,Y,Ceramics & Refractory,Y,0.054956,0.058054,1195103.789258431,5555125.925310578
IT_220,Vetrerie Riunite SpA,IT-A-267,IT,2319.0,Non-metallic minerals,45.4211,11.1619,2055,Y,Glass,Y,0.0549,0.055192,1242537.0242854469,5688060.480451442
IT_936,Unigrà SRL. - stabilimento di Conselice,IT-A-1419,IT,1041.0,"Food, beverages & tobacco",44.53583,11.85667,2058,Y,No EIGL,Y,0.054756,0.09933,1319878.4669038905,5548741.036539956
IT_1253,Radici Chimica S.p.A.,IT-A-2203,IT,2014.0,Chemical & petrochemical,45.4596,8.6421,2072,Y,Chemicals,Y,0.054014,0.041821,962034.1713845526,5694168.642409526
IT_799,VEBAD S.p.A.,IT-A-1200,IT,2313.0,Non-metallic minerals,40.7783,16.9081,2083,Y,Glass,Y,0.053624,0.055229,1882201.082281754,4979695.756446321
IT_205525,LAMINAZIONE SOTTILE SPA,IT-A-2210,IT,2561.0,Machinery,41.030278,14.326944,2116,Y,No EIGL,Y,0.052017,0.058259,1594868.1107037491,5016808.688242247
IT_641,CARTIERA GIORGIONE S.p.A.,IT-A-949,IT,1712.0,"Paper, pulp & printing",45.668,11.9357,2137,Y,Pulp & paper,Y,0.051215,0.05224,1328676.0462612812,5727304.675996407
IT_159,CTEC LAMARMORA,IT-A-189,IT,3500.0,Production of electricity,45.5163,10.2122,2138,Y,Production of electricity,N,0.051174,0.092762,1136816.9038790744,5703171.8983854065
IT_286,Stabilimento di Bergantino (Rovigo),IT-A-357,IT,2313.0,Non-metallic minerals,45.05960936,11.25139365,2139,Y,Glass,Y,0.051168,0.047335,1252499.4118326793,5630910.646624276
IT_283,PONTELONGO,IT-A-353,IT,1081.0,"Food, beverages & tobacco",45.2460902,12.0300183,2143,Y,No EIGL,Y,0.051068,0.038218,1339175.5113897682,5660346.9101618
IT_627,Piattaforma Barbara T2,IT-A-927,IT,620.0,Energy sector,44.077,13.7821,2148,Y,No EIGL,N,0.050921,0.051422,1534216.3540619835,5477365.853149155
IT_656,CENTRALE TERMOELETTRICA TOR DI VALLE,IT-A-988,IT,3511.0,Production of electricity,41.8101,12.4222,2156,Y,Production of electricity,N,0.050707,0.054443,1382832.9785322065,5132575.654453358
IT_125,VETROBALSAMO  SPA,IT-A-151,IT,2313.0,Non-metallic minerals,45.5309,9.2176,2158,Y,Glass,Y,0.05067,0.049628,1026098.5383360854,5705491.66545859
IT_202133,GRUPPO CERAMICHE GRESMALT S.P.A.,IT-A-2218,IT,2331.0,Non-metallic minerals,44.5997,10.6908,2160,Y,Ceramics & Refractory,Y,0.050653,0.056915,1190094.4121727317,5558721.058555913
IT_202023,COOPERATIVA CERAMICA D'IMOLA SC - STABILIMENTO 3,IT-A-2159,IT,2341.0,Non-metallic minerals,44.28197204,11.596083,2166,Y,Ceramics & Refractory,Y,0.050193,0.063897,1290870.0547565385,5509182.202062771
IT_251,Stabilimento di Vicenza,IT-A-307,IT,2410.0,Iron & steel,45.5236,11.5006,2169,Y,Iron & steel,Y,0.050139,0.050239,1280240.9358171306,5704331.706669194
IT_202078,NUOVA RIWAL CERAMICHE S.r.l. - Stab. di Maranello,IT-A-2258,IT,2331.0,Non-metallic minerals,44.5411,10.8614,2174,Y,Ceramics & Refractory,Y,0.050002,0.050628,1209085.5173020682,5549564.087034597
IT_341,Co.Pro.B. Zuccherificio e raffineria di Minerbio,IT-A-524,IT,1081.0,"Food, beverages & tobacco",44.6328299,11.5505419,2180,Y,No EIGL,Y,0.049758,0.043442,1285800.4426943753,5563902.100219002
IT_385,Soffass Cartiera Via Lazzareschi,IT-A-589,IT,1712.0,"Paper, pulp & printing",43.8211,10.6139,2190,Y,Pulp & paper,Y,0.049478,0.071542,1181533.9433307329,5437798.606803853
IT_636,Stabilimento di Lonigo,IT-A-944,IT,2313.0,Non-metallic minerals,45.4181,11.3731,2191,Y,Glass,Y,0.049443,0.085071,1266047.700740982,5687584.694753127
IT_215,SUANFARMA ITALIA S.P.A.,IT-A-262,IT,2110.0,Chemical & petrochemical,45.8625,11.0267,2193,Y,Chemicals,Y,0.04934,0.046393,1227486.6291301968,5758342.061385093
IT_525,Siderpotenza S.p.A.,IT-A-774,IT,2410.0,Iron & steel,40.635,15.8136,2197,Y,Iron & steel,Y,0.04924,0.046375,1760361.899608518,4958652.406523325
IT_688,CARTIERA DI CARBONERA SPA,IT-A-1023,IT,1712.0,"Paper, pulp & printing",45.5547,11.9281,2206,Y,Pulp & paper,Y,0.048845,0.054087,1327830.0181312496,5709274.494850145
IT_202105,Fomas S.p.A.,IT-A-2051,IT,2550.0,Machinery,45.67764722,9.40621499,2220,Y,No EIGL,Y,0.048386,0.049146,1047095.063424139,5728841.5868240055
IT_316,Bormioli Luigi Spa Stabilimento di Fidenza (Parma),IT-A-396,IT,2313.0,Non-metallic minerals,44.8642,10.0725,2222,Y,Glass,Y,0.048292,0.051697,1121265.5710152534,5600167.831317204
IT_907,Unicalce - Stabilimento di Lisso,IT-A-1352,IT,2352.0,Non-metallic minerals,45.776917,9.612325,2223,Y,Lime,Y,0.048286,0.064123,1070039.1243394597,5744671.798235257
IT_205908,Marazzi Group S.R.L. a socio unico - Sassuolo,IT-A-2194,IT,2331.0,Non-metallic minerals,44.5492,10.7797,2237,Y,Ceramics & Refractory,Y,0.04779,0.061566,1199990.7149042564,5550829.26247249
IT_630,Centrale gas di Crotone,IT-A-930,IT,620.0,Energy sector,39.1131616,17.0929578,2245,Y,No EIGL,N,0.047466,0.045707,1902779.3584469163,4737893.987549201
IT_58,RIVA Acciaio - Stabilimento di Lesegno,IT-A-70,IT,2410.0,Iron & steel,44.3878,7.9431,2247,Y,Iron & steel,Y,0.047368,0.055174,884221.8473200593,5525652.574217041
IT_170,Stabilimento di Odolo ( BS ),IT-A-207,IT,2410.0,Iron & steel,45.6392,10.3894,2254,Y,Iron & steel,Y,0.046946,0.043136,1156542.717647639,5722718.086600563
IT_817,Stabilimento di Palagiano,IT-A-1224,IT,2352.0,Non-metallic minerals,40.5928,17.0636,2266,Y,Lime,Y,0.046717,0.041206,1899511.2631001105,4952464.02579846
IT_216000,GEFS - CENTRALE ELETTRICA DI TRIESTE,IT-A-2483,IT,3530.0,Production of steam,45.62741,13.7833122,2268,Y,Production of steam,N,0.04664,0.150303,1534351.2955487228,5720841.131688662
IT_489,Concessione Fiume Treste Stoccaggio,IT-A-729,IT,4950.0,Pipeline transport,42.0721937,14.6708107,2278,Y,No EIGL,N,0.046207,0.068525,1633147.1766485162,5171799.852226262
IT_810,ANTIBIOTICOS SPA,IT-A-1213,IT,2110.0,Chemical & petrochemical,45.1432,7.7701,2282,Y,Chemicals,Y,0.045962,0.046063,864963.5754128229,5644093.638107097
IT_859,Stabilimento di Verona,IT-A-1280,IT,1712.0,"Paper, pulp & printing",45.4233,10.9789,2299,Y,Pulp & paper,Y,0.045611,0.052071,1222165.5574702788,5688409.406031199
IT_103,O-I ITALY SPA - STABILIMENTO DI ORIGGIO (VA),IT-A-124,IT,2313.0,Non-metallic minerals,45.5935548,9.01294568,2305,Y,Glass,Y,0.04546,0.049608,1003316.5239789994,5715453.614771191
IT_201848,CASALGRANDE PADANA S.P.A.-SEDE CENTRALE,IT-A-2292,IT,2331.0,Non-metallic minerals,44.5767,10.7358,2306,Y,Ceramics & Refractory,Y,0.045446,0.046371,1195103.789258431,5555125.925310578
IT_205172,FONDERIA DI TORBOLE srl,IT-A-2261,IT,2451.0,Iron & steel,45.516,10.1126,2308,Y,Iron & steel,Y,0.045396,0.041469,1125729.482596063,5703124.238250111
IT_207,Stabilimento di Arco,IT-A-252,IT,1712.0,"Paper, pulp & printing",45.9017,10.8778,2309,Y,Pulp & paper,Y,0.045338,0.054269,1210911.1569510752,5764610.545293487
IT_202500,Gruppo Romani - stabilimento di Rubiera,IT-A-2170,IT,2331.0,Non-metallic minerals,44.65,10.7725,2314,Y,Ceramics & Refractory,Y,0.045258,0.04596,1199189.2145705435,5566588.4214895675
IT_202111,Raffmetal SpA,IT-A-2107,IT,2442.0,Non-ferrous metals,45.6972,10.3375,2326,Y,Non-ferrous metals,Y,0.04484,0.044593,1150765.2360754693,5731957.377917405
IT_202026,COOPERATIVA CERAMICA D'IMOLA SC - STABILIMENTO 5,IT-A-2161,IT,2341.0,Non-metallic minerals,44.3273,11.8929,2339,Y,Ceramics & Refractory,Y,0.044392,0.049456,1323911.572055329,5516233.110985147
IT_210541,ABK GROUP - STABILIMENTO DI SOLIGNANO,IT-A-2155,IT,2331.0,Non-metallic minerals,44.5286,10.9081,2352,Y,Ceramics & Refractory,Y,0.04392,0.034961,1214284.1375221128,5547612.001161556
IT_628,Centrale gas CasalBorsetti,IT-A-928,IT,620.0,Energy sector,44.554697,12.2692383,2363,Y,No EIGL,N,0.043614,0.044551,1365805.359977334,5551687.963920912
IT_176,CARTIERA DI TOSCOLANO,IT-A-216,IT,1712.0,"Paper, pulp & printing",45.635833,10.619167,2368,Y,Pulp & paper,Y,0.043517,0.053906,1182120.263088741,5722182.023655611
IT_202022,COOPERATIVA CERAMICA D'IMOLA SC - STABILIMENTO 2,IT-A-2158,IT,2341.0,Non-metallic minerals,44.3806,11.7111,2369,Y,Ceramics & Refractory,Y,0.043411,0.041644,1303673.688629111,5524531.0701974705
IT_981,Pomposa,IT-A-1464,IT,1039.0,"Food, beverages & tobacco",44.8525057,12.1740173,2383,Y,No EIGL,Y,0.042887,0.043459,1355205.4067445097,5598331.337692031
IT_201869,ITALGRANITI GROUP SPA,IT-A-2038,IT,2331.0,Non-metallic minerals,44.7379,10.8195,2385,Y,Ceramics & Refractory,Y,0.042853,0.041411,1204421.2306378302,5580353.15281414
IT_210544,Cereal Docks Marghera,IT-A-2451,IT,3530.0,Production of steam,45.4676137,12.2319219,2402,Y,Production of steam,N,0.042149,0.042954,1361651.3173310948,5695440.56874013
IT_202619,CERAMICA DEL CONCA SPA - stabilimento di Savignano,IT-A-2164,IT,2331.0,Non-metallic minerals,44.5078,11.0508,2430,Y,Ceramics & Refractory,Y,0.041214,0.044452,1230169.4288583118,5544364.658568217
IT_227,CARTIERE SACI S.P.A.,IT-A-276,IT,1712.0,"Paper, pulp & printing",45.3888,10.9871,2442,Y,Pulp & paper,Y,0.040971,0.039515,1223078.377294782,5682939.182849696
IT_272,MARGHERA AZOTATI,IT-A-340,IT,3511.0,Production of electricity,45.4619,12.2383,2446,Y,Production of electricity,N,0.040868,0.097049,1362361.3241753243,5694533.677576652
IT_202456,Ceramiche Atlas Concorde S.p.A. - Divisione Keope,IT-A-2186,IT,2331.0,Non-metallic minerals,44.5897,10.7536,2447,Y,Ceramics & Refractory,Y,0.040762,0.05032,1197085.2761945536,5557157.782342975
IT_206155,CD CAMISANO,IT-A-2366,IT,1041.0,"Food, beverages & tobacco",45.512158,11.7059447,2479,Y,No EIGL,Y,0.039895,0.03544,1303099.803258223,5702513.893245817
IT_202053,Ceramiche CCV Castelvetro S.p.A. stabilimento di S,IT-A-2039,IT,2331.0,Non-metallic minerals,44.5268,10.9083,2482,Y,Ceramics & Refractory,Y,0.039808,0.043541,1214306.4014202722,5547330.935304829
IT_205305,Produz. di sodio silicato vetroso e silice Amorfa,IT-A-2241,IT,2013.0,Chemical & petrochemical,43.575,10.3175,2487,Y,Chemicals,Y,0.039671,0.044171,1148538.846259606,5399906.296766133
IT_174,TRAVI E PROFILATI DI PALLANZENO S.P.A.,IT-A-213,IT,2410.0,Iron & steel,45.4943,10.211,2490,Y,Iron & steel,Y,0.0395,0.040444,1136683.3204901242,5699677.495428325
IT_207442,Marcegaglia Palini e Bertoli SpA,IT-A-2412,IT,6311.0,Commercial & public services,45.8067,13.2167,2492,Y,No EIGL,N,0.039492,0.039838,1471276.3139674654,5749426.685098049
IT_202464,Ceramiche Refin S.p.A.,IT-A-2202,IT,2331.0,Non-metallic minerals,44.381565,10.54612545,2494,Y,Ceramics & Refractory,Y,0.03945,0.045683,1173989.314935987,5524681.374884683
IT_580,Impianto di San Vito al Tagliamento (PN),IT-A-846,IT,2313.0,Non-metallic minerals,45.95,12.8833,2498,Y,Glass,Y,0.039356,0.038443,1434162.3957369898,5772340.302359446
IT_202458,Ceramiche Caesar S.p.A.,IT-A-2198,IT,2331.0,Non-metallic minerals,44.5387,10.8497,2503,Y,Ceramics & Refractory,Y,0.039263,0.047511,1207783.079259785,5549189.254042286
IT_437,CENTRALE TERMOELETTRICA DI MONTALTO DI CASTRO,IT-A-664,IT,3511.0,Production of electricity,42.3589,11.5338,2504,Y,Production of electricity,N,0.039255,0.004342,1283936.7429114634,5214893.460611445
IT_201263,8487,0,IT,5100.0,Domestic aviation,,,2506,Y,No EIGL,N,0.03921,0.042063,,
IT_376,Industria Cartaria Pieretti S.p.A.,IT-A-580,IT,1712.0,"Paper, pulp & printing",43.8833,10.5417,2510,Y,Pulp & paper,Y,0.039113,0.039918,1173496.6760954573,5447400.314678397
IT_317,Laterlite S.p.A. - Unità produttiva Rubbiano,IT-A-398,IT,2399.0,Non-metallic minerals,44.6822,10.07,2513,Y,Cement,Y,0.038971,0.037678,1120987.2722882703,5571628.367355368
IT_216280,Tuscania S.p.A.,IT-A-2251,IT,2331.0,Non-metallic minerals,44.394745,10.8007396,2521,Y,Ceramics & Refractory,Y,0.038851,0.040815,1202332.83246275,5526734.48902024
IT_811,Avi.Coop. s.c.r.l.,IT-A-1215,IT,1012.0,"Food, beverages & tobacco",44.11212,12.19936,2524,Y,No EIGL,Y,0.038789,0.038719,1358026.5432038377,5482809.437436174
IT_893,Sasol Italy - Unità Produttiva di Sarroch,IT-A-1332,IT,2014.0,Chemical & petrochemical,39.0899,9.0111,2525,Y,Chemicals,Y,0.038785,0.04361,1003111.0634872738,4734557.169401064
IT_203817,Marcegaglia Plates SpA - San Giorgio di Nogaro,IT-A-2207,IT,2410.0,Iron & steel,45.7631,13.21,2530,Y,Iron & steel,Y,0.03872,0.038445,1470530.473379148,5742466.762236424
IT_202933,Cartiere Carrara Spa - Stabilimento Ferrania,IT-A-1699,IT,1712.0,"Paper, pulp & printing",44.3583,8.3167,2546,Y,Pulp & paper,Y,0.038382,0.034776,925810.8090804212,5521058.39783138
IT_458,STABILIMENTO DI VILLA SANTA LUCIA,IT-A-691,IT,1712.0,"Paper, pulp & printing",41.4929,13.7763,2552,Y,Pulp & paper,Y,0.038277,0.064598,1533570.70101538,5085318.413253556
IT_210679,Ceramiche Mariner,IT-A-2455,IT,2331.0,Non-metallic minerals,44.4889,10.6972,2553,Y,Ceramics & Refractory,Y,0.038238,0.03886,1190806.8569138134,5541414.9529377725
IT_841,AB MAURY ITALY S.P.A.,IT-A-1251,IT,1089.0,"Food, beverages & tobacco",45.0209663,9.127847,2561,Y,No EIGL,Y,0.038059,0.045265,1016107.2800789132,5624822.8051611055
IT_210,Sappi Condino,IT-A-256,IT,1712.0,"Paper, pulp & printing",45.8792,10.5922,2563,Y,Pulp & paper,Y,0.037892,0.05173,1179118.3103805175,5761012.022734947
IT_504,O-I ITALY SPA - STABILIMENTO DI BARI,IT-A-748,IT,2313.0,Non-metallic minerals,41.1025,16.8178,2569,Y,Glass,Y,0.037721,0.039828,1872148.93226312,5027472.1664575245
IT_842,Stabilimento di Corteolona,IT-A-1253,IT,1051.0,"Food, beverages & tobacco",45.1581,9.3792,2572,Y,No EIGL,Y,0.03769,0.039057,1044087.7680482744,5646445.530221457
IT_1101,Nuovo Polo Tecnologico Osp. Niguarda Ca' Granda,IT-A-1591,IT,8610.0,Commercial & public services,45.5085098,9.1859169,2576,Y,No EIGL,N,0.037563,0.041935,1022571.591777332,5701934.37412049
IT_820,CARTESAR,IT-A-1227,IT,1712.0,"Paper, pulp & printing",40.71171061,14.770983,2577,Y,Pulp & paper,Y,0.037545,0.03335,1644298.3060761068,4969911.590796867
IT_217640,CENTRALE COGENERAZIONE TEP SAPPI,IT-A-2482,IT,3530.0,Production of steam,45.6322341,11.7114494,2580,Y,Production of steam,N,0.037436,0.028496,1303712.5836591949,5721609.075325305
IT_408,STABILIMENTO DI PIOMBINO,IT-A-620,IT,2410.0,Iron & steel,42.9413,10.5438,2590,Y,Iron & steel,Y,0.03725,0.032827,1173730.4470261217,5303041.3721086355
IT_109,Stabilimento di Besana in Brianza,IT-A-133,IT,2314.0,Non-metallic minerals,45.6964,9.2747,2599,Y,Glass,Y,0.036936,0.046629,1032454.8812603804,5731829.8742701
IT_576,O-I ITALY SPA - STABILIMENTO DI VILLOTTA (PN),IT-A-842,IT,2313.0,Non-metallic minerals,45.8707,12.7721,2613,Y,Glass,Y,0.036717,0.036038,1421783.668360772,5759652.960124248
IT_202460,Ceramiche Marca Corona S.p.A.,IT-A-2199,IT,2331.0,Non-metallic minerals,44.5667,10.7861,2614,Y,Ceramics & Refractory,Y,0.036711,0.047289,1200703.1596453318,5553563.267450288
IT_557,LEONE LA FERLA S.P.A.,IT-A-821,IT,2352.0,Non-metallic minerals,37.2596,15.1387,2623,Y,Lime,Y,0.036536,0.035748,1685232.3752721336,4475353.717014347
IT_81,Stabilimento di Vado Ligure,IT-A-100,IT,2059.0,Chemical & petrochemical,44.2711,8.4206,2629,Y,Chemicals,Y,0.036414,0.035209,937376.9041738434,5507491.830580128
IT_217542,VDN S.R.L.,IT-A-2489,IT,2311.0,Non-metallic minerals,45.7751739,13.2346498,2642,Y,Glass,Y,0.03611,0.0,1473274.4765633063,5744393.589195598
IT_340,Concessione Minerbio Stoccaggio,IT-A-523,IT,4950.0,Pipeline transport,44.6147771,11.4831799,2651,Y,No EIGL,N,0.035943,0.050771,1278301.7391555584,5561078.534462495
IT_1215,Basell Poliolefine Italia S.r.l. di Ferrara,IT-A-1632,IT,2016.0,Chemical & petrochemical,44.8684,11.5908,2667,Y,Chemicals,Y,0.035625,0.043314,1290281.9538866817,5600827.49782112
IT_483,BUSSI SUL TIRINO,IT-A-723,IT,3511.0,Production of electricity,42.2,13.8397,2671,Y,Production of electricity,N,0.035587,0.043941,1540628.356731674,5190985.714725116
IT_205606,Ceramiche Moma S.p.A.,IT-A-2145,IT,2331.0,Non-metallic minerals,44.8214,11.2372,2696,Y,Ceramics & Refractory,Y,0.035082,0.032726,1250919.381942177,5593448.257705671
IT_703,CARTITALIA SRL,IT-A-1038,IT,1712.0,"Paper, pulp & printing",44.9136,12.2328,2699,Y,Pulp & paper,Y,0.035057,0.040832,1361749.066975963,5607929.814641971
IT_380,LUCART S.p.A. Stabilimento di Castelnuovo,IT-A-584,IT,1712.0,"Paper, pulp & printing",44.105,10.3961,2701,Y,Pulp & paper,Y,0.035022,0.037338,1157288.5582359566,5481705.579305914
IT_202109,COTTO PETRUS SRL,IT-A-2123,IT,2331.0,Non-metallic minerals,44.51085487,10.73135659,2704,Y,Ceramics & Refractory,Y,0.034947,0.036779,1194609.151119849,5544841.519101053
IT_201873,FORGIATURA MORANDINI SRL,IT-A-2001,IT,2550.0,Machinery,45.93972625,10.26379593,2708,Y,No EIGL,Y,0.0349,0.033516,1142560.5365336817,5770695.564951537
IT_582,CALCISERNIA S.P.A.,IT-A-849,IT,2352.0,Non-metallic minerals,41.56887812,14.22395469,2709,Y,Lime,Y,0.034872,0.027396,1583403.3931573986,5096616.657296702
IT_373,MONDIALCARTA S.p.A.,IT-A-577,IT,1712.0,"Paper, pulp & printing",43.955,10.5047,2713,Y,Pulp & paper,Y,0.034781,0.035709,1169377.8549361087,5458480.96850279
IT_202160,MARAZZI Stabilimento Casiglie,IT-A-2191,IT,2331.0,Non-metallic minerals,44.5717,10.7978,2716,Y,Ceramics & Refractory,Y,0.034684,0.040986,1202005.597687615,5554344.56279445
IT_419,Polynt Stabilimento di San Giovanni Valdarno,IT-A-634,IT,2014.0,Chemical & petrochemical,43.5564,11.5381,2727,Y,Chemicals,Y,0.034456,0.047064,1284415.4167218744,5397048.738604849
IT_215960,NOVAMONT S.P.A. - Stabilimento di Patrica NOVAMON,IT-A-2485,IT,3530.0,Production of steam,41.609802,13.2938917,2729,Y,Production of steam,N,0.034409,0.028956,1479869.2547049343,5102707.704435557
IT_211699,CHP Bracco - Cesano Maderno,IT-A-2461,IT,3530.0,Production of steam,45.63386688,9.11020027,2731,Y,Production of steam,N,0.034376,0.032362,1014142.8548585076,5721869.010906906
IT_378,Papergroup S.p.A. Divisione Cartiera,IT-A-582,IT,1712.0,"Paper, pulp & printing",43.9063,10.6482,2737,Y,Pulp & paper,Y,0.034288,0.025533,1185352.2018649392,5450953.323911656
IT_217682,Centrale di Melfi,IT-A-2496,IT,3530.0,Production of steam,41.0801598,15.6843289,2738,Y,Production of steam,N,0.034256,0.002081,1745971.5065822273,5024172.415516293
IT_191,COIM spa,IT-A-234,IT,2014.0,Chemical & petrochemical,45.3883,9.7361,2757,Y,Chemicals,Y,0.033844,0.029197,1083817.6943123932,5682859.928805156
IT_989,COGENIO- CENTRALE COGENERAZIONE PILKINGTON,IT-A-1435,IT,3511.0,Production of electricity,42.0628,14.7591,2763,Y,Production of electricity,N,0.033706,0.035722,1642975.496567009,5170391.226392906
IT_203785,Stabilimento di Marsciano,IT-A-2010,IT,2332.0,Non-metallic minerals,42.9631,12.3083,2764,Y,Ceramics & Refractory,Y,0.033705,0.030223,1370153.6885308526,5306356.976175625
IT_202507,Stabilimento di Solignano,IT-A-2230,IT,2331.0,Non-metallic minerals,44.5314,10.9108,2765,Y,Ceramics & Refractory,Y,0.033694,0.038191,1214584.700147255,5548049.231981464
IT_1020,Canavese,IT-A-1513,IT,3511.0,Production of electricity,45.5163,10.2122,2770,Y,Production of electricity,N,0.033664,0.041827,1136816.9038790744,5703171.8983854065
IT_205317,Stabilimento di Bubano,IT-A-2214,IT,2332.0,Non-metallic minerals,44.4181,11.7942,2774,Y,Ceramics & Refractory,Y,0.033554,0.055347,1312924.3383140324,5530373.749512675
IT_637,LEDOGA SRL,IT-A-945,IT,2059.0,Chemical & petrochemical,44.37,7.9222,2780,Y,Chemicals,Y,0.033435,0.033433,881895.2699624754,5522880.218014134
IT_205517,FERRIERA VALSIDER SPA,IT-A-2253,IT,2410.0,Iron & steel,45.3303,11.0708,2781,Y,Iron & steel,Y,0.033432,0.0321,1232395.8186741816,5673671.21222211
IT_356,Stabilimento Versalis di Ravenna,IT-A-548,IT,2017.0,Chemical & petrochemical,44.4455,12.2328,2811,Y,Chemicals,Y,0.03293,0.032871,1361749.066975963,5534645.170075493
IT_201945,CERAMICA SANT'AGOSTINO S.P.A.,IT-A-2252,IT,2331.0,Non-metallic minerals,44.78939938,11.36963827,2812,Y,Ceramics & Refractory,Y,0.032927,0.033559,1265662.3427201216,5588427.438627316
IT_635,Bormioli Luigi Spa Stabilimento di Altare (Savona),IT-A-943,IT,2313.0,Non-metallic minerals,44.3389,8.3225,2822,Y,Glass,Y,0.032833,0.040948,926456.4621270248,5518038.4034645315
IT_168,Industrie Riunite Odolesi I.R.O. s.p.a.,IT-A-205,IT,2410.0,Iron & steel,45.64,10.3889,2828,Y,Iron & steel,Y,0.032757,0.030472,1156487.0579022437,5722845.460019714
IT_803,STABILIMENTO DI ORMELLE - TREVISO,IT-A-1204,IT,2313.0,Non-metallic minerals,45.7711,12.4125,2830,Y,Glass,Y,0.032682,0.033084,1381753.1794715107,5743743.404640895
IT_621,Centrale Gas di Fano,IT-A-921,IT,620.0,Energy sector,43.8078,13.0419,2834,Y,No EIGL,N,0.032593,0.034542,1451817.666976801,5435746.807070858
IT_687,CARTIERA DELL'ADDA SRL,IT-A-1022,IT,1712.0,"Paper, pulp & printing",45.8025,9.4169,2835,Y,Pulp & paper,Y,0.032586,0.031589,1048284.512851184,5748755.996814548
IT_123,Stabilimento Rho,IT-A-148,IT,2016.0,Chemical & petrochemical,45.5240352,9.0299188,2845,Y,Chemicals,Y,0.032374,0.039431,1005205.9627206164,5704400.85506144
IT_193,Concessione Sergnano Stoccaggio,IT-A-236,IT,4950.0,Pipeline transport,45.4262884,9.6987482,2851,Y,No EIGL,N,0.032309,0.027933,1079659.7109561863,5688883.395630728
IT_919,IMPIANTO PRODUZIONE OSSIDO DI CALCIO,IT-A-1368,IT,2352.0,Non-metallic minerals,39.8111,9.0511,2852,Y,Lime,Y,0.032301,0.033731,1007563.843119007,4838529.696993683
IT_246,Stabilimento di Sarego,IT-A-301,IT,1712.0,"Paper, pulp & printing",45.4206,11.3928,2854,Y,Pulp & paper,Y,0.03224,0.052491,1268240.6947096095,5687981.181079488
IT_205643,DI MUZIO LATERIZI,IT-A-2182,IT,2332.0,Non-metallic minerals,42.2845,14.0164,2856,Y,Ceramics & Refractory,Y,0.032221,0.019022,1560298.5107548432,5203691.89333184
IT_877,PARMALAT  COLLECCHIO,IT-A-1312,IT,1051.0,"Food, beverages & tobacco",44.7544792,10.2040155,2870,Y,No EIGL,Y,0.03196,0.03673,1135905.8095066736,5582951.722882905
IT_205382,Stabilimento Knauf di Castellina M.ma,IT-A-2311,IT,2352.0,Non-metallic minerals,43.4222004,10.5457848,2874,Y,Lime,Y,0.03182,0.030102,1173951.393951448,5376457.448664082
IT_345,BASF Italia - Stabilimento di Sasso Marconi,IT-A-530,IT,2014.0,Chemical & petrochemical,44.4292,11.28,2885,Y,Chemicals,Y,0.03156,0.032362,1255683.856148129,5532103.901220786
IT_202673,SPRAY DRY,IT-A-2341,IT,2331.0,Non-metallic minerals,44.56609229,10.78932944,2896,Y,Ceramics & Refractory,Y,0.031379,0.037495,1201062.6592616837,5553468.311828982
IT_386,SOFFASS Via Leccio,IT-A-590,IT,1712.0,"Paper, pulp & printing",43.8194,10.6275,2909,Y,Pulp & paper,Y,0.031152,0.033563,1183047.888405521,5437536.321213616
IT_702,Stabilimento di Moggio Udinese,IT-A-1037,IT,1712.0,"Paper, pulp & printing",46.4017,13.1875,2914,Y,Pulp & paper,Y,0.030966,0.033528,1468025.7848363016,5844957.272052826
IT_209747,Acciaierie Venete Spa  - stab. di Borgo Valsugana,IT-A-2435,IT,2410.0,Iron & steel,46.0159,11.4355,2924,Y,Iron & steel,Y,0.030788,0.027457,1272994.0369664852,5782897.572608398
IT_217420,OFFICINE TECNOSIDER SRL,IT-A-2490,IT,2410.0,Iron & steel,45.7693832,13.2336349,2929,Y,Iron & steel,Y,0.030716,0.010832,1473161.4984120969,5743469.421750569
IT_217620,Sterilgarda Alimenti SpA,IT-A-1702,IT,3530.0,Production of steam,45.3873983,10.4829578,2936,Y,Production of steam,N,0.030585,0.032572,1166957.5243033827,5682717.003833361
IT_205283,Itelyum Regeneration Srl Stabilimento di Ceccano,IT-A-2243,IT,1920.0,Refineries & petrochemical industry,41.6125,13.3072,2941,Y,Refining,Y,0.030551,0.029298,1481350.7278842526,5103109.406313934
IT_210098,PM MTB Reduced Risk Products Factory Crespellano,IT-A-2428,IT,3530.0,Production of steam,44.5048099,11.0828584,2946,Y,Production of steam,N,0.030519,0.027356,1233738.1536219637,5543897.932735386
IT_202117,Forgital Italy S.p.A.,IT-A-2088,IT,2550.0,Machinery,45.7968444,11.37756888,2948,Y,No EIGL,Y,0.030498,0.029447,1266545.1741870036,5747852.947011242
IT_984,Centrale di Cogenerazione Cartiera del Chiese,IT-A-1449,IT,1712.0,"Paper, pulp & printing",45.4121,10.383,2952,Y,Pulp & paper,Y,0.030414,0.038105,1155830.2729065637,5686633.199185529
IT_95,Stabilimento di Caronno Pertusella,IT-A-116,IT,2410.0,Iron & steel,45.5903,9.0389,2959,Y,Iron & steel,Y,0.030326,0.033987,1006205.745331328,5714935.836377659
IT_207182,CENTRALE DI CASSINO,IT-A-2399,IT,3511.0,Production of electricity,41.474167,13.751389,2967,Y,Production of electricity,N,0.03016,0.032498,1530797.6211802317,5082534.780021049
IT_1181,UNITA' PRODUTTIVA DI CALLIANO,IT-A-1645,IT,2362.0,Non-metallic minerals,45.00940724,8.25149468,2970,Y,Cement,Y,0.030151,0.031261,918552.1856157336,5623002.585196891
IT_212,STABILIMENTO DI VARONE,IT-A-259,IT,1712.0,"Paper, pulp & printing",45.9099,10.8377,2972,Y,Pulp & paper,Y,0.030106,0.03695,1206447.2453702656,5765922.36941787
IT_491,Laterlite S.p.A. - Unità produttiva di Lentella,IT-A-731,IT,2399.0,Non-metallic minerals,41.99472,14.7125,2974,Y,Cement,Y,0.030084,0.027999,1637788.0082960413,5160188.558466844
IT_24,Centrale termoelettrica,IT-A-27,IT,3530.0,Production of steam,45.1083,7.7239,2984,Y,Production of steam,N,0.02992,0.033395,859820.6149381737,5638587.248718066
IT_482,ARDAGH GLASS ITALY S.R.L.,IT-A-722,IT,2313.0,Non-metallic minerals,42.5864,13.6294,2989,Y,Glass,Y,0.029878,0.028868,1517217.8678178464,5249228.110098427
IT_207572,CARTIERA PIRINOLI,IT-A-2410,IT,1712.0,"Paper, pulp & printing",44.3149,7.4689,3006,Y,Pulp & paper,Y,0.029695,0.032154,831434.1447858894,5514303.710326073
IT_206,Stabilimento di Bolzano,IT-A-251,IT,2410.0,Iron & steel,46.4786,11.3361,3008,Y,Iron & steel,Y,0.029628,0.033953,1261928.8795816335,5857379.740400636
IT_384,Stabilimento di Porcari,IT-A-588,IT,1712.0,"Paper, pulp & printing",43.8214,10.62,3013,Y,Pulp & paper,Y,0.029581,0.031787,1182212.9922245722,5437844.8932714965
IT_205547,Saint-Gobain Italia S.p.A. stabilimento Di Termoli,IT-A-2121,IT,2362.0,Non-metallic minerals,41.973955,14.99768008,3016,Y,Cement,Y,0.029527,0.02825,1669534.1095860298,5157078.827429098
IT_245,Stabilimento di Rossano Veneto,IT-A-299,IT,1712.0,"Paper, pulp & printing",45.6919,11.8114,3028,Y,Pulp & paper,Y,0.029397,0.0291,1314839.033555677,5731112.700239662
IT_678,BORMIOLI LUIGI SPA,IT-A-1013,IT,2313.0,Non-metallic minerals,44.8171066,10.3242055,3033,Y,Glass,Y,0.029236,0.032747,1149285.2991051213,5592774.471930789
IT_1247,Centrale Termoelettrica di Colleferro,IT-A-1694,IT,3500.0,Production of electricity,41.7625,12.9717,3036,Y,Production of electricity,N,0.029208,0.060895,1444003.0387231128,5125469.220811133
IT_205325,Ila Valdadige s.r.l,IT-A-2235,IT,2332.0,Non-metallic minerals,40.7322,16.5742,3055,Y,Ceramics & Refractory,Y,0.02884,0.024112,1845031.5043058833,4972921.111097541
IT_202461,Meta S.p.A.,IT-A-2200,IT,2331.0,Non-metallic minerals,44.55906498,10.82085226,3060,Y,Ceramics & Refractory,Y,0.028768,0.031885,1204571.7635324476,5552370.355894671
IT_1161,Stabilimento Versalis di Ferrara,IT-A-1629,IT,2017.0,Chemical & petrochemical,44.8582,11.5869,3061,Y,Chemicals,Y,0.028762,0.030557,1289847.8078725894,5599225.534077979
IT_102,A.Merati & C.Cartiera di Laveno Spa,IT-A-123,IT,1712.0,"Paper, pulp & printing",45.8993328,8.62378428,3066,Y,Pulp & paper,Y,0.02869,0.035176,959995.2749832798,5764231.880106081
IT_883,R.D.M. OVARO S.P.A.,IT-A-1319,IT,1712.0,"Paper, pulp & printing",46.4833,12.8639,3079,Y,Pulp & paper,Y,0.028285,0.039861,1432002.7976155984,5858139.549961805
IT_202443,STABILIMENTO PANARIAGROUP N 1,IT-A-2288,IT,2331.0,Non-metallic minerals,44.8214,11.2372,3095,Y,Ceramics & Refractory,Y,0.028087,0.034081,1250919.381942177,5593448.257705671
IT_202462,Slim Aluminium S.p.A.,IT-A-2040,IT,2442.0,Non-ferrous metals,41.5567,12.8636,3103,Y,Non-ferrous metals,Y,0.028009,0.029176,1431969.4017683624,5094804.829764081
IT_236,CARTIERA DEL VIGNALETTO S.R.L.,IT-A-286,IT,1712.0,"Paper, pulp & printing",45.3739,11.0703,3107,Y,Pulp & paper,Y,0.027945,0.027941,1232340.15892878,5680577.713086802
IT_448,ITALCALCE SRL,IT-A-679,IT,2352.0,Non-metallic minerals,41.312222,13.255278,3108,Y,Lime,Y,0.027909,0.024376,1475570.7972832853,5058503.988435057
IT_205654,GRANITIFIANDRE SASSUOLO,IT-A-2330,IT,2331.0,Non-metallic minerals,44.5706,10.8028,3112,Y,Ceramics & Refractory,Y,0.027826,0.034917,1202562.1951415811,5554172.672055989
IT_205818,Impianto di Porto Marghera Cofely-Arkema,IT-A-2370,IT,3511.0,Production of electricity,45.4533,12.2171,3115,Y,Production of electricity,N,0.027795,0.028319,1360001.3509705109,5693168.839720276
IT_602,CARTIERA DI PIANO DI COREGLIA,IT-A-883,IT,1712.0,"Paper, pulp & printing",44.0318,10.5004,3119,Y,Pulp & paper,Y,0.02773,0.027745,1168899.1811256974,5470364.626075481
IT_206285,Impianto di produzione EE e termica,IT-A-2387,IT,3511.0,Production of electricity,42.9194,10.7994,3124,Y,Production of electricity,N,0.02769,0.061724,1202183.708872884,5299711.740706539
IT_968,Bridgestone Italia Manufacturing S.p.A.,IT-A-1448,IT,2211.0,Not elsewhere specified (industry),41.1035967,16.7959457,3125,Y,No EIGL,Y,0.027681,0.030911,1869716.1227154797,5027634.183022385
IT_203480,Unità produttiva di Massa,IT-A-2021,IT,2013.0,Chemical & petrochemical,44.0322,10.1153,3129,Y,Chemicals,Y,0.027615,0.032715,1126030.0452212056,5470426.560410179
IT_29,Oxerra Italy S.p.A.,IT-A-32,IT,2012.0,Chemical & petrochemical,45.1119,7.6936,3141,Y,Chemicals,Y,0.02745,0.044644,856447.6343671363,5639155.087249946
IT_80,Raffineria di greggi e oli pesanti,IT-A-99,IT,1920.0,Refineries & petrochemical industry,44.4518,12.2367,3144,Y,Refining,Y,0.027363,0.026503,1362183.212990055,5535627.5682763355
IT_201915,S.I.A.I. S.r.l.,IT-A-2028,IT,2332.0,Non-metallic minerals,42.0342,14.8439,3151,Y,Ceramics & Refractory,Y,0.02727,0.028647,1652415.389386282,5166103.815671996
IT_76,Stabilimento di Carcare,IT-A-95,IT,2313.0,Non-metallic minerals,44.3525,8.2942,3154,Y,Glass,Y,0.027226,0.031014,923306.1205375748,5520155.408163221
IT_904,TOLENTINO S.R.L.,IT-A-1348,IT,1712.0,"Paper, pulp & printing",43.2106,13.297,3161,Y,Pulp & paper,Y,0.027123,0.030447,1480215.269078161,5344082.449569722
IT_68,Stabilimento di Alessandria,IT-A-82,IT,2211.0,Not elsewhere specified (industry),44.8863,8.6585,3164,Y,No EIGL,Y,0.027104,0.029639,963859.811033566,5603639.47350931
IT_201764,Fincibec Spa - Stabilmento MONOCIBEC di Sassuolo,IT-A-2267,IT,2331.0,Non-metallic minerals,44.5722,10.8039,3178,Y,Ceramics & Refractory,Y,0.026936,0.028357,1202684.646581455,5554422.696023033
IT_117,TECNOCITY,IT-A-141,IT,3511.0,Production of electricity,45.4692,9.1739,3201,Y,Production of electricity,N,0.026564,0.029791,1021233.8765884192,5695692.366105105
IT_411,Corning Pharmaceutical Glass S.p.A,IT-A-624,IT,2319.0,Non-metallic minerals,43.7194,10.4017,3204,Y,Glass,Y,0.026542,0.025297,1157911.9473844003,5422120.87455058
IT_204523,SACAL SOCIETA' ALLUMINIO CARISIO SPA,IT-A-2334,IT,2442.0,Non-ferrous metals,45.4336,8.22,3205,Y,Non-ferrous metals,Y,0.026501,0.025588,915046.2143207118,5690043.1930353595
IT_219761,Santa Maria s.r.l. Stabilimento di Filo,IT-A-2168,IT,2331.0,Non-metallic minerals,44.5886267,11.9399104,3235,Y,Ceramics & Refractory,Y,0.025881,,1329144.7458453148,5556990.011891248
IT_721,Stabilimento di Crusinallo,IT-A-1068,IT,1712.0,"Paper, pulp & printing",45.8711,8.4183,3240,Y,Pulp & paper,Y,0.025815,0.032084,937120.8693450198,5759716.911351129
IT_454,Klopman International S.r.l.,IT-A-687,IT,1330.0,Textile & leather,41.6215762,13.2840147,3251,Y,No EIGL,Y,0.025666,0.028891,1478769.7520943673,5104460.873837065
IT_761,Essity PLD Italy stab Collodi,IT-A-1155,IT,1712.0,"Paper, pulp & printing",43.9414,10.6994,3257,Y,Pulp & paper,Y,0.025553,0.028032,1191051.7597935542,5456378.172175564
IT_1135,Stabilimento Fantoni - Rivoli Osoppo,IT-A-1595,IT,1621.0,Wood & wood products,46.2306,13.0778,3262,Y,No EIGL,Y,0.0255,0.032694,1455814.0366962757,5817380.353558028
IT_206982,LEONARDO SPA DIVISIONE VELIVOLI - STAB. CAMERI,IT-A-2397,IT,3030.0,Transport equipment,45.569278,8.6555646,3265,Y,No EIGL,Y,0.025469,0.032345,963533.04380029,5711592.348546317
IT_544,CENTRALE ELETTRICA,IT-A-805,IT,3511.0,Production of electricity,35.50410807,12.62467828,3270,Y,Production of electricity,N,0.025405,0.026743,1405372.7575585083,4232600.200806999
IT_302,Stabilimento di Duino,IT-A-382,IT,1712.0,"Paper, pulp & printing",45.7933,13.5831,3271,Y,Pulp & paper,Y,0.025402,0.152043,1512063.7753941207,5747287.046752539
IT_277,PM3 - Cartiera di Carmignano di Brenta,IT-A-345,IT,1721.0,"Paper, pulp & printing",45.6333,11.7167,3285,Y,Pulp & paper,Y,0.025252,0.025288,1304297.077777555,5721778.763792318
IT_1034,Impianto di Rivarolo del Re (CR),IT-A-1493,IT,1039.0,"Food, beverages & tobacco",45.0230581,10.4736607,3295,Y,No EIGL,Y,0.025121,0.025579,1165922.5758655258,5625152.2428490715
IT_726,Stabilimento di Casale Cremasco,IT-A-1086,IT,1051.0,"Food, beverages & tobacco",45.4313,9.713,3305,Y,No EIGL,Y,0.024973,0.026206,1081246.2140750687,5689678.340956369
IT_203786,Stabilimento di Dunarobba,IT-A-2009,IT,2332.0,Non-metallic minerals,42.67090037,12.45140582,3307,Y,Ceramics & Refractory,Y,0.024957,0.025636,1386084.155542808,5262012.93021764
IT_217601,Centrale di Piombino,IT-A-2494,IT,3530.0,Production of steam,42.9291924,10.5310972,3322,Y,Production of steam,N,0.02485,0.006854,1172316.3777984728,5301200.410930286
IT_319,SICEM SAGA SPA,IT-A-424,IT,1711.0,"Paper, pulp & printing",44.5833,10.4,3359,Y,Pulp & paper,Y,0.024309,0.02952,1157722.7042500488,5556157.426715257
IT_546,CENTRALE TERMOELETTRICA DI PORTO EMPEDOCLE,IT-A-807,IT,3511.0,Production of electricity,37.2869,13.5215,3360,Y,Production of electricity,N,0.024288,0.081849,1505206.494761255,4479172.753196853
IT_994,Comprensorio di Foggia,IT-A-1443,IT,1073.0,"Food, beverages & tobacco",41.478448,15.5180698,3362,Y,No EIGL,Y,0.024272,0.029373,1727463.6282304807,5083170.844991472
IT_205624,GRANITIFIANDRE CASTELLARANO,IT-A-2315,IT,2331.0,Non-metallic minerals,44.5169,10.7392,3365,Y,Ceramics & Refractory,Y,0.024252,0.030564,1195482.275527128,5545785.228318075
IT_534,CENTRALE ELETTRICA,IT-A-795,IT,3511.0,Production of electricity,36.8282,11.9346,3368,Y,Production of electricity,N,0.024222,0.025888,1328553.5948214077,4415187.060290266
IT_208742,IMPIANTO DI GARDOLO (TN),IT-A-2422,IT,2311.0,Non-metallic minerals,46.1167,11.0986,3372,Y,Glass,Y,0.024203,0.0,1235490.5005182298,5799070.239838494
IT_601,DIVISIONE CARTIERA VALLE DI LANZO,IT-A-881,IT,1712.0,"Paper, pulp & printing",45.205,7.5914,3375,Y,Pulp & paper,Y,0.024183,0.029076,845070.7824080595,5653852.483123597
IT_211218,Sito di Rosia,IT-A-2457,IT,3530.0,Production of steam,43.22995124,11.22799441,3377,Y,Production of steam,N,0.024157,0.026215,1249894.6203509294,5347038.525263231
IT_208744,Stabilimento di Lugagnano Val d'Arda,IT-A-2416,IT,2331.0,Non-metallic minerals,44.8186,9.8352,3383,Y,Ceramics & Refractory,Y,0.024072,0.026374,1094849.455850009,5593008.833333002
IT_868,LESAFFRE ITALIA,IT-A-1299,IT,1089.0,"Food, beverages & tobacco",44.9267819,10.2576081,3386,Y,No EIGL,Y,0.024024,0.024081,1141871.7104489617,5610002.150416346
IT_203822,Bipan Bicinicco,IT-A-2166,IT,1621.0,Wood & wood products,45.9306193,13.2567316,3396,Y,No EIGL,Y,0.023892,0.041995,1475732.6112951012,5769237.876791439
IT_724,Rubiera Special Steel SpA,IT-A-1082,IT,2410.0,Iron & steel,44.6262,10.7785,3399,Y,Iron & steel,Y,0.023866,0.025571,1199857.1315153064,5562865.04223279
IT_607,Stabilimento di Ottaviano (NA),IT-A-896,IT,2313.0,Non-metallic minerals,40.8506,14.4844,3427,Y,Glass,Y,0.023539,0.023117,1612396.0324460971,4990330.110230954
IT_812,STABILIMENTO DI SAN GEMINI (TR),IT-A-1216,IT,2313.0,Non-metallic minerals,42.6069,12.5389,3429,Y,Glass,Y,0.023509,0.024025,1395823.9631077857,5252328.145339742
IT_203843,Nuova Riwal Ceramiche S.r.l. - Stab. Castellarano,IT-A-2259,IT,2331.0,Non-metallic minerals,44.4819,10.6889,3430,Y,Ceramics & Refractory,Y,0.023453,0.023218,1189882.905140227,5540322.7119385535
IT_626,Piattaforma Barbara T1,IT-A-926,IT,620.0,Energy sector,43.6220339,13.3702811,3437,Y,No EIGL,N,0.02339,0.02266,1488372.8838149358,5407136.156745314
IT_154,RADICI YARN SPA,IT-A-183,IT,2060.0,Chemical & petrochemical,45.897778,9.92,3439,Y,Chemicals,Y,0.023371,0.027497,1104289.348669282,5763983.177909241
IT_993,Centrale Cogenerazione Aquafil,IT-A-1434,IT,3510.0,Production of electricity,45.9301,10.9065,3441,Y,Production of electricity,N,0.023356,0.034467,1214106.0263368438,5769154.7631510645
IT_918,IMPIANTO COMBUSTIONE TERM. PER PRODUZ. VAPORE,IT-A-1367,IT,1041.0,"Food, beverages & tobacco",44.5389,10.9281,3449,Y,No EIGL,Y,0.023252,0.025093,1216510.527337976,5549220.489534855
IT_532,STABILIMENTO DI MARSALA (TP),IT-A-793,IT,2313.0,Non-metallic minerals,37.779722,12.483611,3461,Y,Glass,Y,0.023,0.021852,1389669.2197813145,4548354.484115311
IT_606,STABILIMENTO DI MEZZOCORONA (TN),IT-A-893,IT,2313.0,Non-metallic minerals,46.2311,11.1286,3468,Y,Glass,Y,0.022937,0.024256,1238830.0852420314,5817460.815266853
IT_210898,SAXAGRES SPA,IT-A-2447,IT,2331.0,Non-metallic minerals,41.71268926,13.13026415,3473,Y,Ceramics & Refractory,Y,0.02289,0.020734,1461654.3191591832,5118038.377483019
IT_551,ACCIAIERIE DI SICILIA S.p.A.,IT-A-814,IT,2410.0,Iron & steel,37.446111,15.034444,3474,Y,Iron & steel,Y,0.022877,0.022092,1673626.6504399944,4501472.676233226
IT_207703,Mater-Biotech Spa,IT-A-2415,IT,2013.0,Chemical & petrochemical,45.02656226,12.07113804,3475,Y,Chemicals,Y,0.022874,0.039443,1343752.93990812,5625704.140157849
IT_1142,società elettrica liparese s.r.l.,IT-A-1600,IT,3511.0,Production of electricity,38.474,14.9543,3477,Y,Production of electricity,N,0.022853,0.02395,1664705.061169856,4646604.220505905
IT_215800,CARTIERA CONFALONE S.p.A.,IT-A-2481,IT,1712.0,"Paper, pulp & printing",40.816866,14.7978083,3478,Y,Pulp & paper,Y,0.022812,0.019608,1647284.484812482,4985366.852097157
IT_352,CARTIERA DI FERRARA S.P.A.,IT-A-539,IT,1712.0,"Paper, pulp & printing",44.8592,11.6011,3493,Y,Pulp & paper,Y,0.022488,0.024715,1291428.5446418494,5599382.576798626
IT_201926,COEM S.P.A. - Stabilimento di Roteglia frazione d,IT-A-2172,IT,2331.0,Non-metallic minerals,44.47873009,10.68455346,3501,Y,Ceramics & Refractory,Y,0.022399,0.024744,1189399.0505207176,5539828.139953628
IT_202617,CERAMICA DEL CONCA SPA - Stabilimento di S. Clemen,IT-A-2257,IT,2331.0,Non-metallic minerals,43.92444816,12.65171196,3527,Y,Ceramics & Refractory,Y,0.02207,0.03434,1408382.1330503756,5453757.796477795
IT_202593,TRAVI E PROFILATI DI PALLANZENO S.P.A.,IT-A-2013,IT,2410.0,Iron & steel,46.0375,8.2636,3533,Y,Iron & steel,Y,0.022017,0.024997,919899.7441193014,5786360.659337239
IT_942,Stabilimento di Monopoli,IT-A-1425,IT,1041.0,"Food, beverages & tobacco",40.951,17.2878,3535,Y,No EIGL,Y,0.022006,0.027166,1924469.0929359617,5005116.859366443
IT_129,VETROPACK ITALIA S.R.L.,IT-A-156,IT,2313.0,Non-metallic minerals,45.417778,9.08,3538,Y,Glass,Y,0.021988,0.05515,1010780.9764029286,5687533.628590423
IT_230,Centrale di Cogenerazione di Centro Città,IT-A-279,IT,3530.0,Production of steam,45.4283,10.9892,3546,Y,Production of steam,N,0.021821,0.024623,1223312.1482254462,5689202.469284134
IT_205393,Donati Laterizi Gabbro,IT-A-2023,IT,2332.0,Non-metallic minerals,43.4833,10.4578,3548,Y,Ceramics & Refractory,Y,0.021767,0.029188,1164156.970817905,5385826.763659143
IT_863,Stabilimento di Angri,IT-A-1284,IT,1039.0,"Food, beverages & tobacco",40.748222,14.5789812,3568,Y,No EIGL,Y,0.021494,0.020503,1622924.7634687133,4975275.098454651
IT_1144,Sanofi SpA Stabilimento di Brindisi,IT-A-1569,IT,2110.0,Chemical & petrochemical,40.6417,17.9567,3579,Y,Chemicals,Y,0.021352,0.025162,1998930.7003275831,4959635.281649926
IT_203948,ASFO S.p.A.,IT-A-2373,IT,2550.0,Machinery,45.01570081,11.68163388,3587,Y,No EIGL,Y,0.021234,0.028246,1300393.535155058,5623993.596151673
IT_217680,Centrale di Castellanza,IT-A-2493,IT,3530.0,Production of steam,45.6147212,8.8935429,3611,Y,Production of steam,N,0.02101,0.000361,990024.66697614,5718821.529833919
IT_201859,FORNACI D.C.B. - PIERINO BRANELLA SPA,IT-A-2024,IT,2332.0,Non-metallic minerals,42.0333,12.5958,3612,Y,Ceramics & Refractory,Y,0.021009,0.023511,1402158.0421339213,5165968.928471654
IT_819,Stabilimento di Itri,IT-A-1226,IT,2352.0,Non-metallic minerals,41.2844,13.5392,3618,Y,Lime,Y,0.020929,0.015799,1507176.8497482953,5054381.535881668
IT_880,IMPIANTO PER LA FABBRICAZIONE DEL VETRO,IT-A-1315,IT,2313.0,Non-metallic minerals,45.0083,9.4419,3624,Y,Glass,Y,0.020893,0.037547,1051067.5001210135,5622828.245978248
IT_1252,Yara Italia Spa - Stabilimento di Ravenna,IT-A-2126,IT,2015.0,Chemical & petrochemical,44.446,12.238,3625,Y,Fertilizers,Y,0.020884,0.024764,1362327.9283280885,5534723.134315753
IT_43,CARTIERA DI MOMO,IT-A-50,IT,1712.0,"Paper, pulp & printing",45.5706,8.5492,3631,Y,Pulp & paper,Y,0.020803,0.025868,951692.5906898592,5711802.571913367
IT_225,IMPIANTO DI PRODUZIONE CARNI,IT-A-274,IT,1013.0,"Food, beverages & tobacco",45.4300216,11.0716224,3668,Y,No EIGL,Y,0.020452,0.019412,1232487.3678234045,5689475.553081772
IT_217681,Centrale di Gorizia,IT-A-2495,IT,3530.0,Production of steam,45.9180716,13.5940634,3688,Y,Production of steam,N,0.020213,0.0,1513284.2154994814,5767229.842963981
IT_202444,STABILIMENTO PANARIAGROUP N 2,IT-A-2289,IT,2331.0,Non-metallic minerals,44.4017,10.4761,3691,Y,Ceramics & Refractory,Y,0.020204,0.033194,1166194.1174994167,5527818.0903416695
IT_201266,35318,0,IT,5100.0,Domestic aviation,,,3723,Y,No EIGL,N,0.019842,0.018372,,
IT_930,MUTTI S.p.a.,IT-A-1412,IT,1039.0,"Food, beverages & tobacco",44.6870771,10.3749074,3732,Y,No EIGL,Y,0.019721,0.019158,1154929.4087953705,5572391.975549991
IT_554,Stabilimento Versalis di Ragusa,IT-A-818,IT,2016.0,Chemical & petrochemical,36.912727,14.6793,3738,Y,Chemicals,Y,0.019685,0.015294,1634092.2012017083,4426949.027926379
IT_205245,ArcelorMittal Piombino S.p.A.,IT-A-2333,IT,2410.0,Iron & steel,42.9764,10.6053,3741,Y,Iron & steel,Y,0.01966,0.025133,1180576.5957099106,5308380.375900757
IT_625,Centrale Olio di Trecate,IT-A-925,IT,610.0,Energy sector,45.4322,8.7836,3758,Y,No EIGL,N,0.019512,0.025716,977785.8793318016,5689821.107390425
IT_201893,CERAMICHE SERRA S.P.A.,IT-A-2254,IT,2331.0,Non-metallic minerals,44.4691,10.8411,3785,Y,Ceramics & Refractory,Y,0.019253,0.020081,1206825.7316389624,5538325.810112876
IT_192,Concessione Ripalta Stoccaggio,IT-A-235,IT,4950.0,Pipeline transport,45.3064666,9.6997124,3787,Y,No EIGL,N,0.019226,0.026302,1079767.045209209,5669898.106413555
IT_202198,Rodacciai s.p.a.,IT-A-2036,IT,2410.0,Iron & steel,45.7833,9.3,3802,Y,Iron & steel,Y,0.019058,0.022914,1035271.264377452,5745690.636915774
IT_1221,Stabilimento Bracco Imaging di Ceriano Laghetto,IT-A-1670,IT,2120.0,Chemical & petrochemical,45.6303,9.0822,3825,Y,Chemicals,Y,0.018792,0.016277,1011025.8792826756,5721301.1799501125
IT_470,Centrale termica,IT-A-706,IT,3530.0,Production of steam,40.916011,14.389658,3832,Y,Production of steam,N,0.018748,0.015451,1601849.4012493617,4999961.187474105
IT_1055,Stabilimento di Abbiategrasso (MI),IT-A-1548,IT,2313.0,Non-metallic minerals,45.3980985,8.9508259,3836,Y,Glass,Y,0.01872,0.019625,996401.3813672492,5684413.198087692
IT_217600,Centrale di Sulmona,IT-A-2492,IT,3530.0,Production of steam,42.0468749,13.9351925,3842,Y,Production of steam,N,0.018669,0.0,1551258.533206248,5168003.665000161
IT_1056,Amga Legnano Spa,IT-A-1572,IT,3511.0,Production of electricity,45.60446306,8.89723792,3846,Y,Production of electricity,N,0.018615,0.019304,990435.9949436483,5717189.135893501
IT_916,Industria Cartaria Tivoli S.r.l.,IT-A-1364,IT,1712.0,"Paper, pulp & printing",41.9542,12.7644,3857,Y,Pulp & paper,Y,0.018527,0.013975,1420926.5082816638,5154121.293211068
IT_382,TOSCOPAPER S.P.A.,IT-A-586,IT,1712.0,"Paper, pulp & printing",43.9008,10.535,3859,Y,Pulp & paper,Y,0.018501,0.018825,1172750.8355071398,5450103.56641481
IT_155,ITALFOND SPA,IT-A-184,IT,2410.0,Iron & steel,45.4261,10.1794,3868,Y,Iron & steel,Y,0.018337,0.0186,1133165.624581054,5688853.512798718
IT_205327,Laterificio Pugliese S.p.A.,IT-A-2142,IT,2332.0,Non-metallic minerals,40.9079,16.1843,3886,Y,Ceramics & Refractory,Y,0.018202,0.022112,1801628.0348455843,4998766.411398311
IT_128,Concessione Settala Stoccaggio,IT-A-155,IT,4950.0,Pipeline transport,45.4488924,9.4103272,3901,Y,No EIGL,N,0.017989,0.035522,1047552.8321020964,5692469.4251165
IT_996,Impianto Cogenerazione Massa,IT-A-1468,IT,3500.0,Production of electricity,44.0322,10.1153,3922,Y,Production of electricity,N,0.017781,0.02029,1126030.0452212056,5470426.560410179
IT_716,Nuovo Centro Olio Gela,IT-A-1063,IT,610.0,Energy sector,37.0861861,14.3285472,3925,Y,No EIGL,N,0.017759,0.021844,1595046.5781113924,4451126.836425675
IT_207746,FIS Fabbrica Italiana Sintetici Spa,IT-A-2404,IT,2110.0,Chemical & petrochemical,45.492596,11.4286187,3927,Y,Chemicals,Y,0.017751,0.017843,1272228.0141544922,5699406.895006492
IT_185,CTEC - Centrale TermoElettrica Cogenerativa,IT-A-228,IT,3500.0,Production of electricity,45.1351,10.0549,3933,Y,Production of electricity,N,0.017716,0.020799,1119306.34797729,5642815.350632933
IT_219300,Terminale GNL Piombino,IT-A-2499,IT,3530.0,Production of steam,42.941847,10.558898,3935,Y,Production of steam,N,0.017683,,1175411.1486981208,5303124.552032206
IT_204442,ACCIAIERIE VENETE SPA - STABILIMENTO MURA,IT-A-2139,IT,2410.0,Iron & steel,45.7011,10.365,3939,Y,Iron & steel,Y,0.017645,0.017177,1153826.522072288,5732578.98432199
IT_1104,Centrale cogenerativa di telerisc. di Mondovì,IT-A-1607,IT,3530.0,Production of steam,44.40659804,7.81986417,3940,Y,Production of steam,N,0.017644,0.017335,870503.2979222463,5528581.290956692
IT_604,EUROPAPER S.P.A.,IT-A-887,IT,1712.0,"Paper, pulp & printing",44.2137,10.133,3953,Y,Pulp & paper,Y,0.017494,0.017744,1128000.4002082453,5498572.527618877
IT_205527,CERAMICA DOLOMITE SPA,IT-A-2156,IT,2342.0,Non-metallic minerals,46.0806,12.1417,3968,Y,Ceramics & Refractory,Y,0.017364,0.012573,1351607.8613646976,5793274.847797211
IT_577,Stabilimento di Cordenons,IT-A-843,IT,1712.0,"Paper, pulp & printing",45.9678,12.7133,3975,Y,Pulp & paper,Y,0.017264,0.027947,1415238.0823021317,5775190.648319775
IT_798,Impianto di cogenerazione di Varese,IT-A-1198,IT,3530.0,Production of steam,45.799722,8.849722,3978,Y,Production of steam,N,0.017258,0.018685,985146.5467020352,5748312.412202052
IT_202535,SOLVAY SPECIALTY POLYMERS ITALY SPA,IT-A-2204,IT,2016.0,Chemical & petrochemical,44.88556,8.670278,3989,Y,Chemicals,Y,0.017179,0.017984,965170.9319961282,5603523.206898697
IT_999,"Centrale termica e cogeneratore A.O.U.""",IT-A-1450,IT,3500.0,Production of electricity,40.86361955,14.22119366,3994,Y,Production of electricity,N,0.017116,0.033584,1583096.036703735,4992246.342621901
IT_595,Centrale di compressione gas di Masera,IT-A-870,IT,4950.0,Pipeline transport,46.1346886,8.3218839,4005,Y,No EIGL,N,0.01702,0.024151,926387.8781887467,5801959.4961785
IT_211458,CENTRALE IOTTI ROZZANO,IT-A-2463,IT,3530.0,Production of steam,45.3798993,9.1623607,4006,Y,Production of steam,N,0.017007,0.023591,1019949.327588304,5681528.454725748
IT_210859,C.le di produzione calore terleriscaldamento BG,IT-A-1533,IT,3530.0,Production of steam,45.6711,9.6386,4007,Y,Production of steam,N,0.016998,0.017412,1072964.0439600523,5727798.512032889
IT_1226,Cte Tamarete,IT-A-1679,IT,3511.0,Production of electricity,42.3231,14.3772,4045,Y,Production of electricity,N,0.016608,0.034588,1600462.583033061,5209501.80577287
IT_645,CENTRALE TERMOELETTRICA,IT-A-972,IT,3511.0,Production of electricity,40.4267,16.5492,4068,Y,Production of electricity,N,0.016445,0.01549,1842248.5170360475,4928144.291104149
IT_1158,Stabilimento di Foggia,IT-A-1611,IT,1039.0,"Food, beverages & tobacco",41.4253547,15.6561717,4071,Y,No EIGL,Y,0.016405,0.015141,1742837.0614160683,5075285.284886616
IT_204202,DUFERCO TRAVI E PROFILATI S.P.A.,IT-A-2022,IT,2410.0,Iron & steel,38.205555,15.314722,4072,Y,Iron & steel,Y,0.016397,0.018468,1704827.0546805526,4608504.675142098
IT_535,Centrale Turbogas di Trapani,IT-A-796,IT,3511.0,Production of electricity,37.8765,12.5905,4079,Y,Production of electricity,N,0.016358,0.010917,1401568.0488327194,4561994.065204397
IT_1028,Cartiera di Guarcino,IT-A-1486,IT,1712.0,"Paper, pulp & printing",41.8147,13.31,4100,Y,Pulp & paper,Y,0.016168,0.015019,1481662.4224584778,5133262.690355504
IT_210840,Keritaly S.p.a.,IT-A-2459,IT,2331.0,Non-metallic minerals,44.9277908,10.87241582,4106,Y,Ceramics & Refractory,Y,0.016055,0.017313,1210311.79277514,5610160.779885148
IT_206346,SAIB S.p.A.,IT-A-2236,IT,1621.0,Wood & wood products,45.0427702,9.8364522,4118,Y,No EIGL,Y,0.015849,0.013608,1094988.8501163814,5628257.293845779
IT_255,Mosaico Srl - Stabilimento di Treviso,IT-A-312,IT,1712.0,"Paper, pulp & printing",45.6889,12.3197,4123,Y,Pulp & paper,Y,0.015797,0.020366,1371422.7307259,5730634.6162766
IT_156,Metalcam S.p.A.,IT-A-185,IT,2410.0,Iron & steel,45.9608,10.3106,4124,Y,Iron & steel,Y,0.015767,0.016288,1147770.741773129,5774069.616506325
IT_204901,Huntsman P&A S.r.l,IT-A-2282,IT,2012.0,Chemical & petrochemical,42.9194,10.7994,4137,Y,Chemicals,Y,0.015707,0.066887,1202183.708872884,5299711.740706539
IT_213280,Stabilimento di Maniago,IT-A-2473,IT,2442.0,Non-ferrous metals,46.146463,12.7191837,4149,Y,Non-ferrous metals,Y,0.015651,0.017043,1415893.0527901088,5803851.163862079
IT_550,Centrale di compressione gas di Enna,IT-A-811,IT,4950.0,Pipeline transport,37.5441276,14.3990589,4159,Y,No EIGL,N,0.015498,0.00512,1602895.9046503603,4515224.9946905775
IT_202099,NICHE Fusina Rolled Products srl,IT-A-2283,IT,2442.0,Non-ferrous metals,45.4167,12.2406,4173,Y,Non-ferrous metals,Y,0.015347,0.017317,1362617.3590041476,5687362.6700780755
IT_202223,RIVA ACCIAIO S.P.A. - Stabilimento di Cerveno,IT-A-2141,IT,2410.0,Iron & steel,46.0,10.3167,4182,Y,Iron & steel,Y,0.01528,0.017529,1148449.7906669683,5780349.220256363
IT_290,CARTIERE DEL POLESINE SPA - STABILIMENTO DI LOREO,IT-A-361,IT,1721.0,"Paper, pulp & printing",45.060833,12.1925,4194,Y,Pulp & paper,Y,0.015189,0.017417,1357262.8914969938,5631103.486491163
IT_565,Stabilimento Versalis di Porto Torres,IT-A-829,IT,2014.0,Chemical & petrochemical,40.8342,8.3805,4197,Y,Chemicals,Y,0.015174,0.016524,932912.9925930336,4987916.875089559
IT_202046,Forgiatura A. VIENNA Srl,IT-A-2320,IT,2550.0,Machinery,45.5392,9.0759,4202,Y,No EIGL,Y,0.015112,0.016043,1010324.5664906768,5706810.70562941
IT_312,Casoni di Gariga di Podenzano,IT-A-392,IT,1039.0,"Food, beverages & tobacco",44.990213,9.6876241,4206,Y,No EIGL,Y,0.015056,0.014846,1078421.381808651,5619980.854916892
IT_1019,Impianto di cogenerazione industriale,IT-A-1503,IT,3530.0,Production of steam,45.0506,9.7139,4212,Y,Production of steam,N,0.014993,0.014278,1081346.4016167829,5629490.941207142
IT_598,CARTIERA DI PIANO DELLA ROCCA,IT-A-875,IT,1712.0,"Paper, pulp & printing",44.0096,10.5436,4218,Y,Pulp & paper,Y,0.014891,0.015055,1173708.183127962,5466927.925641001
IT_207496,CONCESSIONE BORDOLANO STOCCAGGIO,IT-A-2411,IT,3530.0,Production of steam,45.2843686,9.9720144,4225,Y,Production of steam,N,0.014775,0.020685,1110079.565191195,5666401.151779053
IT_202234,Franchini Acciai spa,IT-A-2269,IT,2550.0,Machinery,45.60082414,9.87812293,4229,Y,No EIGL,Y,0.014695,0.013281,1099627.6147836044,5716610.140560384
IT_205126,STABILIMENTO 7,IT-A-2061,IT,2331.0,Non-metallic minerals,44.5403,10.8698,4237,Y,Ceramics & Refractory,Y,0.014634,0.016564,1210020.601024731,5549439.140987062
IT_239,Cartiera di Chiampo,IT-A-289,IT,1712.0,"Paper, pulp & printing",45.5392,11.2906,4240,Y,Pulp & paper,Y,0.014606,0.02498,1256863.842750539,5706810.70562941
IT_711,MUTTI SPA STABILIMENTO DI COLLECCHIO,IT-A-1053,IT,1039.0,"Food, beverages & tobacco",44.7687376,10.2144014,4261,Y,No EIGL,Y,0.014362,0.015643,1137061.9626061055,5585187.134619963
IT_205601,FACI SPA,IT-A-2249,IT,2014.0,Chemical & petrochemical,44.3578,9.3593,4266,Y,Chemicals,Y,0.014307,0.015372,1041872.5101814936,5520980.550374062
IT_209748,Acciaierie Venete Spa - stabilimento di Odolo,IT-A-2436,IT,2410.0,Iron & steel,45.6419,10.385,4268,Y,Iron & steel,Y,0.014293,0.014855,1156052.9118881512,5723147.9791792175
IT_205573,TRAFILERIE CARLO GNUTTI S.p.A.,IT-A-2277,IT,2444.0,Non-ferrous metals,45.540278,9.920278,4271,Y,Non-ferrous metals,Y,0.014276,0.01936,1104320.2954877203,5706982.036217023
IT_723,FORONI SPA,IT-A-1080,IT,2410.0,Iron & steel,45.6467,8.9325,4274,Y,Iron & steel,Y,0.014255,0.01333,994361.351510923,5723912.2838093
IT_207014,Matrica SpA,IT-A-2392,IT,2016.0,Chemical & petrochemical,40.8308,8.3531,4278,Y,Chemicals,Y,0.01422,0.01762,929862.838545298,4987416.64495892
IT_217200,Cartiera di Cologno,IT-A-2486,IT,1712.0,"Paper, pulp & printing",45.5420724,9.2936895,4305,Y,Pulp & paper,Y,0.013924,0.007622,1034568.7827307964,5707267.234231509
IT_693,CARTIERA GIACOSA S.P.A.,IT-A-1028,IT,1712.0,"Paper, pulp & printing",45.2862,7.6696,4314,Y,Pulp & paper,Y,0.013854,0.019195,853775.9665880976,5666690.914585492
IT_866,ICO SRL,IT-A-1288,IT,1721.0,"Paper, pulp & printing",42.4292,14.1897,4341,Y,Pulp & paper,Y,0.013675,0.014693,1579590.1785093222,5225489.930178138
IT_579,Bormioli Pharma S.r.l. - Stabilimento di San Vito,IT-A-845,IT,2319.0,Non-metallic minerals,45.9153,12.8626,4350,Y,Glass,Y,0.013619,0.01268,1431858.0822775655,5766786.359437043
IT_862,Stabilimento di Sarno,IT-A-1283,IT,1039.0,"Food, beverages & tobacco",40.8101009,14.6215811,4367,Y,No EIGL,Y,0.013481,0.013299,1627666.962644561,4984371.811890908
IT_950,CENTRALE DI COGEN. E TELERISC. CITTA' DI LODI,IT-A-858,IT,3530.0,Production of steam,45.30429009,9.47757224,4374,Y,Production of steam,N,0.013411,0.012772,1055038.516158548,5669553.618503439
IT_1071,Henkel Ferentino,IT-A-1530,IT,2041.0,Chemical & petrochemical,41.646,13.2561,4385,Y,Chemicals,Y,0.013332,0.01839,1475662.3019047205,5108098.58005421
IT_861,TELERISCALDAMENTO BRUNICO,IT-A-1282,IT,3530.0,Production of steam,46.7904,11.9629,4395,Y,Production of steam,N,0.013267,0.01204,1331703.9364108576,5907928.872796282
IT_941,Stabilimento di San Pietro di Morubio,IT-A-1424,IT,1041.0,"Food, beverages & tobacco",45.24592178,11.19911011,4406,Y,No EIGL,Y,0.013194,0.007572,1246679.2347830075,5660320.281300584
IT_228,Centrale di Cogenerazione di Banchette,IT-A-277,IT,3530.0,Production of steam,45.44669742,11.02799667,4410,Y,Production of steam,N,0.013143,0.014824,1227630.973774322,5692121.137791389
IT_215700,CENTRALE DI TELERISCALDAMENTO DI BUSTO ARSIZIO,IT-A-2477,IT,3530.0,Production of steam,45.6053572,8.8407564,4415,Y,Production of steam,N,0.013096,0.014531,984148.500675378,5717331.409920703
IT_806,Leonardo SPA - Div. Elicotteri - Stab. di Vergiate,IT-A-1208,IT,3030.0,Transport equipment,45.7182482,8.69422,4423,Y,No EIGL,Y,0.013027,0.011621,967836.1432446982,5735312.68635376
IT_366,Stabilimento di Pioraco,IT-A-566,IT,1712.0,"Paper, pulp & printing",43.1783,12.9844,4437,Y,Pulp & paper,Y,0.012865,0.015045,1445416.7962561871,5339150.422967835
IT_213,STABILIMENTO DI RIVA DEL GARDA,IT-A-260,IT,1712.0,"Paper, pulp & printing",45.885,10.8536,4444,Y,Pulp & paper,Y,0.01282,0.012065,1208217.2252738774,5761939.502441579
IT_51,STABILIMENTO DI STRADA FALCHETTO,IT-A-60,IT,2221.0,Not elsewhere specified (industry),44.7007,7.8298,4446,Y,No EIGL,Y,0.01281,0.014508,871609.3490131772,5574525.25548519
IT_205314,Stabilimento di Terni,IT-A-2213,IT,2332.0,Non-metallic minerals,42.5706,12.5706,4466,Y,Ceramics & Refractory,Y,0.01263,0.022753,1399352.790965933,5246839.510235721
IT_814,IMPIANTI DI COMBUSTIONE CON POT CAL COMB SUP 20MW,IT-A-1218,IT,2014.0,Chemical & petrochemical,45.6428,8.8911,4473,Y,Chemicals,Y,0.012593,0.017613,989752.7245920805,5723291.281309241
IT_676,Bolton Alimentari S.p.A.,IT-A-1011,IT,1020.0,"Food, beverages & tobacco",45.6984226,9.0985293,4481,Y,No EIGL,Y,0.012535,0.013707,1012843.6486436856,5732152.238890516
IT_684,CARTIERE CARRARA SpA - STABILIMENTO  CALAMARI,IT-A-1019,IT,1712.0,"Paper, pulp & printing",43.944,10.7045,4487,Y,Pulp & paper,Y,0.012518,0.012586,1191619.4891966027,5456780.140160168
IT_900,SICIT GROUP S.P.A - STABILIMENTO DI ARZIGNANO,IT-A-1339,IT,2014.0,Chemical & petrochemical,45.5025,11.36556,4499,Y,Chemicals,Y,0.012426,0.014789,1265208.3517804064,5700979.795076679
IT_722,CONSORZIO CASALASCO DEL POMODORO,IT-A-1070,IT,1039.0,"Food, beverages & tobacco",44.8796256,10.1831844,4509,Y,No EIGL,Y,0.012374,0.017531,1133586.9020620151,5602590.865614136
IT_201775,Sadepanchimica,IT-A-2027,IT,2014.0,Chemical & petrochemical,44.9305,10.5205,4513,Y,Chemicals,Y,0.012359,0.013668,1171136.7028906376,5610586.7615151545
IT_205280,Dalmine S.p.A- sede di Arcore,IT-A-2002,IT,2420.0,Iron & steel,45.6425,9.5969,4520,Y,Iron & steel,Y,0.012306,0.012847,1068322.021193974,5723243.513676779
IT_206930,Impianto di Crescentino,IT-A-2396,IT,2014.0,Chemical & petrochemical,45.209722,8.061944,4526,Y,Chemicals,Y,0.012284,0.01197,897451.5008838916,5654598.570451
IT_240,Mosaico Srl - Stabilimento di Lugo,IT-A-292,IT,1712.0,"Paper, pulp & printing",45.7436,11.5239,4541,Y,Pulp & paper,Y,0.01215,0.03468,1282834.6799526082,5739355.713109355
IT_392,CARTONIFICIO SANDRESCHI SRL,IT-A-597,IT,1712.0,"Paper, pulp & printing",43.91345,10.64875,4558,Y,Pulp & paper,Y,0.012005,0.012578,1185413.427584879,5452058.126045762
IT_452,Stabilimento di Cassino,IT-A-684,IT,1712.0,"Paper, pulp & printing",41.4799,13.8365,4581,Y,Pulp & paper,Y,0.011841,0.031835,1540272.1343611362,5083386.590654865
IT_896,CENTRALE DI PRODUZIONE DI ENERGIA ELETTRICA,IT-A-1335,IT,3510.0,Production of electricity,37.929855,12.31563171,4596,Y,Production of electricity,N,0.011773,0.012617,1370969.8507546985,4569521.41046819
IT_217220,STABILIMENTO DI SASSUOLO,IT-A-2487,IT,2331.0,Non-metallic minerals,44.5548834,10.7970355,4599,Y,Ceramics & Refractory,Y,0.011757,0.005718,1201920.4939369035,5551717.083398045
IT_208943,LORO PIANA SPA - Quarona,IT-A-2425,IT,3530.0,Production of steam,45.7569828,8.2684634,4610,Y,Production of steam,N,0.011681,0.012489,920441.1353308228,5741490.701125813
IT_308,Concessione Cortemaggiore Stoccaggio,IT-A-388,IT,4950.0,Pipeline transport,44.9921652,9.9174335,4626,Y,No EIGL,N,0.011611,0.015252,1104003.6471961609,5620288.141601831
IT_1014,Centrale Termica,IT-A-1480,IT,3530.0,Production of steam,44.9917,7.4971,4639,Y,Production of steam,N,0.011531,0.012526,834573.3544262565,5620214.915692458
IT_210667,Cartiera di Salerno,IT-A-2453,IT,1712.0,"Paper, pulp & printing",40.6441,14.8347,4645,Y,Pulp & paper,Y,0.011495,0.014972,1651391.2500709814,4959987.380320796
